{"distinct": [{"__class__": "tuple", "__value__": [{"street": "4330 keema ave", "phone": null, "lat": "38.6847699", "county": "sacramento", "zip": "95660", "website": null, "source": "places", "location": {"__class__": "tuple", "__value__": [38.6847699, -121.3587486]}, "city": "north highlands", "id": "chijdzmmnrtymoar_mabdiingqq", "state": "ca", "lng": "-121.3587486", "name": "keema ave overflow parking"}, {"street": "800 sunrise ave", "phone": "9167780212", "lat": "38.7330321", "county": "placer", "zip": "95661", "website": "www.capitalcitytax.com/", "source": "places", "location": {"__class__": "tuple", "__value__": [38.7330321, -121.2727021]}, "city": "roseville", "id": "chijz6klaoyfm4artijwtxkgjg0", "state": "ca", "lng": "-121.2727021", "name": "capital city tax"}]}, {"__class__": "tuple", "__value__": [{"street": "820 battery st", "phone": "4159824570", "lat": "37.7990376", "county": "san francisco", "zip": "94133", "website": "www.kaiming.org/", "source": "places", "location": {"__class__": "tuple", "__value__": [37.7990376, -122.4010161]}, "city": "san francisco", "id": "chijgatkg1-ahyartxemt92hanq", "state": "ca", "lng": "-122.4010161", "name": "kai ming head start broadway center"}, {"street": "1111 gough st", "phone": null, "lat": "37.7842829", "county": "san francisco", "zip": "94109", "website": "www.stmarycathedralsf.org/", "source": "places", "location": {"__class__": "tuple", "__value__": [37.7842829, -122.425022]}, "city": "san francisco", "id": "chijpe9d5l2ahyarg-yodvgm9nc", "state": "ca", "lng": "-122.425022", "name": "st mary of the assumption"}]}, {"__class__": "tuple", "__value__": [{"street": null, "phone": null, "lat": "38.105753", "county": "solano", "zip": "94590", "website": null, "source": "places", "location": {"__class__": "tuple", "__value__": [38.105753, -122.2591368]}, "city": "vallejo", "id": "chijnbnesgdzhyarf-et-x2asxy", "state": "ca", "lng": "-122.2591368", "name": "saint vincents"}, {"street": "lincoln highway", "phone": null, "lat": "38.0867038", "county": "solano", "zip": "94590", "website": null, "source": "places", "location": {"__class__": "tuple", "__value__": [38.0867038, -122.2394981]}, "city": "vallejo", "id": "chijxexjd6nzhyarnfkvyu8khd0", "state": "ca", "lng": "-122.2394981", "name": "grant"}]}, {"__class__": "tuple", "__value__": [{"street": "1364 e mission rd", "phone": "7604328050", "lat": "33.1363879", "county": "san diego", "zip": "92069", "website": "www.learningjungle.com/", "source": "places", "location": {"__class__": "tuple", "__value__": [33.1363879, -117.129044]}, "city": "san marcos", "id": "chij_rsausr124aruwnkjdx18zk", "state": "ca", "lng": "-117.129044", "name": "learning jungle san marcos preschool and daycare"}, {"street": "1825 knob hill rd.", "phone": "7602902080", "lat": "33.139072", "county": "san diego", "zip": "92069", "website": "www.smusd.org", "source": "schools", "location": {"__class__": "tuple", "__value__": [33.139072, -117.121071]}, "city": "san marcos", "id": "063488009439", "state": "ca", "lng": "-117.121071", "name": "knob hill elementary"}]}, {"__class__": "tuple", "__value__": [{"street": "1575 w 2nd st", "phone": "2132418552", "lat": "34.0614543", "county": "los angeles", "zip": "90026", "website": null, "source": "places", "location": {"__class__": "tuple", "__value__": [34.0614543, -118.2629491]}, "city": "los angeles", "id": "chijtrenqqjhwoarzku_k0ozj6w", "state": "ca", "lng": "-118.2629491", "name": "los angeles teacher prepratory"}, {"street": "1575 w 2nd st", "phone": "2132414416", "lat": "34.0623088", "county": "los angeles", "zip": "90026", "website": "https://scms-lausd-ca.schoolloop.com/", "source": "places", "location": {"__class__": "tuple", "__value__": [34.0623088, -118.2640457]}, "city": "los angeles", "id": "chijtrenqqjhwoarvfurk-crot8", "state": "ca", "lng": "-118.2640457", "name": "sal castro middle"}]}, {"__class__": "tuple", "__value__": [{"street": "322 n. washington st.", "phone": "7078941900", "lat": "38.807133", "county": "sonoma", "zip": "95425", "website": "www.cusd.org", "source": "schools", "location": {"__class__": "tuple", "__value__": [38.807133, -123.021066]}, "city": "cloverdale", "id": "060897011806", "state": "ca", "lng": "-123.021066", "name": "eagle creek"}, {"street": "322 n. washington st.", "phone": "7078941925", "lat": "38.807682", "county": "sonoma", "zip": "95425", "website": "www.cusd.org/district/services/alternatives.html", "source": "schools", "location": {"__class__": "tuple", "__value__": [38.807682, -123.01932]}, "city": "cloverdale", "id": "060897000901", "state": "ca", "lng": "-123.01932", "name": "johanna echols-hansen high (continuation)"}]}, {"__class__": "tuple", "__value__": [{"street": "750 dartmouth ave", "phone": "6505087370", "lat": "37.5086592", "county": "san mateo", "zip": "94070", "website": "www.tierralindaschool.org/", "source": "places", "location": {"__class__": "tuple", "__value__": [37.5086592, -122.2859651]}, "city": "san carlos", "id": "chijhztku1-fj4artywzvyn4q7y", "state": "ca", "lng": "-122.2859651", "name": "tierra linda middle"}, {"street": "750 dartmouth ave.", "phone": "6505087343", "lat": "37.508877", "county": "san mateo", "zip": "94070", "website": "www.scclc.net", "source": "schools", "location": {"__class__": "tuple", "__value__": [37.508877, -122.286053]}, "city": "san carlos", "id": "063429004029", "state": "ca", "lng": "-122.286053", "name": "san carlos charter learning center"}]}, {"__class__": "tuple", "__value__": [{"street": "217 maple ave", "phone": "2095992155", "lat": "37.7408502", "county": "san joaquin", "zip": "95366", "website": "www.rcschools.com/", "source": "places", "location": {"__class__": "tuple", "__value__": [37.7408502, -121.1322356]}, "city": "ripon", "id": "chijmdyap1fekiarz9_k8ywwsm8", "state": "ca", "lng": "-121.1322356", "name": "ripon christian elementary"}, {"street": "217 maple ave", "phone": "2095992155", "lat": "37.7412406", "county": "san joaquin", "zip": "95366", "website": "rcschools.com/", "source": "places", "location": {"__class__": "tuple", "__value__": [37.7412406, -121.1321762]}, "city": "ripon", "id": "chijju7g5vnekiar1e4neblbxhg", "state": "ca", "lng": "-121.1321762", "name": "society for christian instruction"}]}, {"__class__": "tuple", "__value__": [{"street": "145 n lincoln way", "phone": "2097453081", "lat": "38.25587", "county": "sacramento", "zip": "95632", "website": "www.galthigh.com/", "source": "places", "location": {"__class__": "tuple", "__value__": [38.25587, -121.300015]}, "city": "galt", "id": "chijn3mscdgimoarmj4w9wnjkt8", "state": "ca", "lng": "-121.300015", "name": "galt high"}, {"street": null, "phone": "2097452049", "lat": "38.2539875", "county": "sacramento", "zip": "95632", "website": null, "source": "places", "location": {"__class__": "tuple", "__value__": [38.2539875, -121.3042525]}, "city": "galt", "id": "chijcsoj4daimoaroysn_mesa0q", "state": "ca", "lng": "-121.3042525", "name": "valley christian of galt"}]}, {"__class__": "tuple", "__value__": [{"street": "725 w franklin ave", "phone": "9093974521", "lat": "34.041134", "county": "los angeles", "zip": "91766", "website": "www.cde.ca.gov/re/sd/details.asp?cds=19649076061634&public=y", "source": "places", "location": {"__class__": "tuple", "__value__": [34.041134, -117.7563035]}, "city": "pomona", "id": "chijff04p5qtw4aryztad3y21lc", "state": "ca", "lng": "-117.7563035", "name": "fremont academy of engineering and design"}, {"street": "321 w. lexington ave.", "phone": "9093974451", "lat": "34.037843", "county": "los angeles", "zip": "91766", "website": "www.pusd.org", "source": "schools", "location": {"__class__": "tuple", "__value__": [34.037843, -117.751687]}, "city": "pomona", "id": "063132004842", "state": "ca", "lng": "-117.751687", "name": "garey high"}]}, {"__class__": "tuple", "__value__": [{"street": "679 encinitas blvd", "phone": "7606341188", "lat": "33.047997", "county": "san diego", "zip": "92024", "website": "www.pacificacademyencinitas.com/", "source": "places", "location": {"__class__": "tuple", "__value__": [33.047997, -117.277693]}, "city": "encinitas", "id": "chijqzkhknem3iar_b9dijhff20", "state": "ca", "lng": "-117.277693", "name": "pacific academy"}, {"street": "679 encinitas blvd", "phone": "7606341188", "lat": "33.0479648", "county": "san diego", "zip": "92024", "website": null, "source": "places", "location": {"__class__": "tuple", "__value__": [33.0479648, -117.2776312]}, "city": "encinitas", "id": "chijqzkhknem3iaragbyl2yzmta", "state": "ca", "lng": "-117.2776312", "name": "great talents academy inc"}]}, {"__class__": "tuple", "__value__": [{"street": null, "phone": null, "lat": "33.879821", "county": "orange", "zip": "92870", "website": null, "source": "places", "location": {"__class__": "tuple", "__value__": [33.879821, -117.874271]}, "city": "placentia", "id": "chijydcuss3u3iar7bbneyrofh4", "state": "ca", "lng": "-117.874271", "name": "public elementary"}, {"street": null, "phone": null, "lat": "33.901809", "county": "orange", "zip": "92835", "website": null, "source": "places", "location": {"__class__": "tuple", "__value__": [33.901809, -117.901746]}, "city": "fullerton", "id": "chijw5d0wz_v3iaranxkv0fghmy", "state": "ca", "lng": "-117.901746", "name": "public elementary"}]}, {"__class__": "tuple", "__value__": [{"street": "3477 delta de anza regional trail", "phone": null, "lat": "38.004178", "county": "contra costa", "zip": "94565", "website": null, "source": "places", "location": {"__class__": "tuple", "__value__": [38.004178, -121.8628698]}, "city": "pittsburg", "id": "chijk6hqrhfzhyaro15nld2rupg", "state": "ca", "lng": "-121.8628698", "name": "parking lot b"}, {"street": "2012 carion ct.", "phone": "9254732500", "lat": "38.01485", "county": "contra costa", "zip": "94565", "website": "www.pittsburg.k12.ca.us/mlk", "source": "schools", "location": {"__class__": "tuple", "__value__": [38.01485, -121.870891]}, "city": "pittsburg", "id": "063060013016", "state": "ca", "lng": "-121.870891", "name": "martin luther king jr. junior high"}]}, {"__class__": "tuple", "__value__": [{"street": "4120 middlefield rd", "phone": "6508560833", "lat": "37.4173677", "county": "santa clara", "zip": "94303", "website": "pausd.org/", "source": "places", "location": {"__class__": "tuple", "__value__": [37.4173677, -122.1059368]}, "city": "palo alto", "id": "chijmxaqsq26j4arjvvu7-p78nm", "state": "ca", "lng": "-122.1059368", "name": "preschool family"}, {"street": "4120 middlefield rd", "phone": "6508560833", "lat": "37.4173677", "county": "santa clara", "zip": "94303", "website": null, "source": "places", "location": {"__class__": "tuple", "__value__": [37.4173677, -122.1059368]}, "city": "palo alto", "id": "chij7a2n1hk6j4arbviplvtnitc", "state": "ca", "lng": "-122.1059368", "name": "greendell"}]}, {"__class__": "tuple", "__value__": [{"street": "41267 highway 41", "phone": "5596421422", "lat": "37.34817", "county": "madera", "zip": "93644", "website": "www.mountainhomecharter.org", "source": "schools", "location": {"__class__": "tuple", "__value__": [37.34817, -119.641281]}, "city": "oakhurst", "id": "060016010251", "state": "ca", "lng": "-119.641281", "name": "mountain home charter (alternative)"}, {"street": "41267 ca-41", "phone": "5596421422", "lat": "37.3483449", "county": "madera", "zip": "93644", "website": "www.mountainhomecharter.org/", "source": "places", "location": {"__class__": "tuple", "__value__": [37.3483449, -119.6414025]}, "city": "oakhurst", "id": "chijjfzswhydloarrkgdctzeelw", "state": "ca", "lng": "-119.6414025", "name": "glacier high charter"}]}, {"__class__": "tuple", "__value__": [{"street": "555 ralph appezzato memorial pkwy", "phone": "5107489618", "lat": "37.7801798", "county": "alameda", "zip": "94501", "website": null, "source": "places", "location": {"__class__": "tuple", "__value__": [37.7801798, -122.2790462]}, "city": "alameda", "id": "chij--wumdmaj4araeiksbkrpfm", "state": "ca", "lng": "-122.2790462", "name": "alameda head start"}, {"street": "401 pacific ave", "phone": "5107484017", "lat": "37.7767438", "county": "alameda", "zip": "94501", "website": "aoamiddle.org/", "source": "places", "location": {"__class__": "tuple", "__value__": [37.7767438, -122.2852408]}, "city": "alameda", "id": "chijizx-p9-aj4arphitxypbv00", "state": "ca", "lng": "-122.2852408", "name": "aoa"}]}, {"__class__": "tuple", "__value__": [{"street": "4500 s. gratton rd.", "phone": "2096320505", "lat": "37.572463", "county": "stanislaus", "zip": "95316", "website": "http://grattonschool.net", "source": "schools", "location": {"__class__": "tuple", "__value__": [37.572463, -120.790893]}, "city": "denair", "id": "061581012452", "state": "ca", "lng": "-120.790893", "name": "gratton charter"}, {"street": "4500 s. gratton rd.", "phone": "2096320505", "lat": "37.572463", "county": "stanislaus", "zip": "95316", "website": null, "source": "schools", "location": {"__class__": "tuple", "__value__": [37.572463, -120.790893]}, "city": "denair", "id": "061581001999", "state": "ca", "lng": "-120.790893", "name": "gratton elementary"}]}, {"__class__": "tuple", "__value__": [{"street": "203 laurine ln", "phone": "7607284754", "lat": "33.3640854", "county": "san diego", "zip": "92028", "website": null, "source": "places", "location": {"__class__": "tuple", "__value__": [33.3640854, -117.2503734]}, "city": "fallbrook", "id": "chijc0kmjln-3iar-xsdyeezry8", "state": "ca", "lng": "-117.2503734", "name": "fallbrook montessori"}, {"street": "203 laurine ln", "phone": "7607284754", "lat": "33.3640854", "county": "san diego", "zip": "92028", "website": null, "source": "places", "location": {"__class__": "tuple", "__value__": [33.3640854, -117.2503734]}, "city": "fallbrook", "id": "chijg-jwjln-3iarfwpbabnlgwk", "state": "ca", "lng": "-117.2503734", "name": "pinktower montessori school"}]}, {"__class__": "tuple", "__value__": [{"street": "5798 utah trail", "phone": "7603679507", "lat": "34.153807", "county": "san bernardino", "zip": "92277", "website": "https://tpjhs-morongousd-ca.schoolloop.com/", "source": "places", "location": {"__class__": "tuple", "__value__": [34.153807, -116.0372997]}, "city": "twentynine palms", "id": "chijxwaphqa42oara8ftjiyubbs", "state": "ca", "lng": "-116.0372997", "name": "twentynine palms junior high"}, {"street": "5798 utah trail", "phone": "7603673531", "lat": "34.153807", "county": "san bernardino", "zip": "92277", "website": null, "source": "places", "location": {"__class__": "tuple", "__value__": [34.153807, -116.0372997]}, "city": "twentynine palms", "id": "chijxwaphqa42oarw1oimh7z3bk", "state": "ca", "lng": "-116.0372997", "name": "uhss"}]}, {"__class__": "tuple", "__value__": [{"street": "9240 lake st", "phone": "7079945787", "lat": "38.916417", "county": "lake", "zip": "95457", "website": "lles.konoctiusd.org/", "source": "places", "location": {"__class__": "tuple", "__value__": [38.916417, -122.607599]}, "city": "lower lake", "id": "chijddgn5bh2hiarzktnh8gbz3m", "state": "ca", "lng": "-122.607599", "name": "lower lake elementary"}, {"street": "9430 lake st", "phone": "7079946471", "lat": "38.9148278", "county": "lake", "zip": "95457", "website": "llhs.konoctiusd.org/", "source": "places", "location": {"__class__": "tuple", "__value__": [38.9148278, -122.6079396]}, "city": "lower lake", "id": "chijkxhutbh2hiarixummzylgry", "state": "ca", "lng": "-122.6079396", "name": "lower lake high"}]}, {"__class__": "tuple", "__value__": [{"street": "887 pomeroy ave", "phone": "4089843418", "lat": "37.3408342", "county": "santa clara", "zip": "95051", "website": "www.myncc.net/", "source": "places", "location": {"__class__": "tuple", "__value__": [37.3408342, -121.9875214]}, "city": "santa clara", "id": "chijh-6llnfkj4argcevtmrb7em", "state": "ca", "lng": "-121.9875214", "name": "agapes"}, {"street": "887 pomeroy ave", "phone": "4089843418", "lat": "37.3409903", "county": "santa clara", "zip": "95051", "website": "www.myncc.net/", "source": "places", "location": {"__class__": "tuple", "__value__": [37.3409903, -121.9875419]}, "city": "santa clara", "id": "chijh-6llnfkj4ar80kyal0zrk0", "state": "ca", "lng": "-121.9875419", "name": "neighborhood christian center"}]}, {"__class__": "tuple", "__value__": [{"street": "5151 banfield dr", "phone": "9165661520", "lat": "38.6673052", "county": "sacramento", "zip": "95835", "website": "www.cityofsacramento.org/parksandrec/recreation/4thr", "source": "places", "location": {"__class__": "tuple", "__value__": [38.6673052, -121.5124813]}, "city": "sacramento", "id": "chijj9pdqmmpm4arxceytptp_do", "state": "ca", "lng": "-121.5124813", "name": "4th r age child care"}, {"street": "5151 banfield dr", "phone": "9165675680", "lat": "38.6677362", "county": "sacramento", "zip": "95835", "website": "https://natomasunified.org/hes/", "source": "places", "location": {"__class__": "tuple", "__value__": [38.6677362, -121.5114176]}, "city": "sacramento", "id": "chijj9pdqmmpm4arrhmobccf5vs", "state": "ca", "lng": "-121.5114176", "name": "heron"}]}, {"__class__": "tuple", "__value__": [{"street": "790 high st", "phone": "5302796161", "lat": "41.5333505", "county": "modoc", "zip": "96104", "website": "www.svjusd.org/", "source": "places", "location": {"__class__": "tuple", "__value__": [41.5333505, -120.175581]}, "city": "cedarville", "id": "chijtbmoej6vy1qrs1j2jr-cclo", "state": "ca", "lng": "-120.175581", "name": "surprise valley elementary"}, {"street": "garfield st.", "phone": "5302796161", "lat": "41.533641", "county": "modoc", "zip": "96104", "website": null, "source": "schools", "location": {"__class__": "tuple", "__value__": [41.533641, -120.175851]}, "city": "cedarville", "id": "063852011691", "state": "ca", "lng": "-120.175851", "name": "surprise valley community day"}]}, {"__class__": "tuple", "__value__": [{"street": "333 s. d st.", "phone": "5595922141", "lat": "36.29341", "county": "tulare", "zip": "93221", "website": null, "source": "schools", "location": {"__class__": "tuple", "__value__": [36.29341, -119.137181]}, "city": "exeter", "id": "060142301501", "state": "ca", "lng": "-119.137181", "name": "lincoln elementary"}, {"street": null, "phone": null, "lat": "36.2927281", "county": "tulare", "zip": "93221", "website": "www.exeter.k12.ca.us/wms/", "source": "places", "location": {"__class__": "tuple", "__value__": [36.2927281, -119.149552]}, "city": "exeter", "id": "chijgw3fwpwzlyar3mxykj6yn0k", "state": "ca", "lng": "-119.149552", "name": "wilson elementary"}]}, {"__class__": "tuple", "__value__": [{"street": "3557 monroe st.", "phone": "7603315299", "lat": "33.163664", "county": "san diego", "zip": "92008", "website": null, "source": "schools", "location": {"__class__": "tuple", "__value__": [33.163664, -117.329296]}, "city": "carlsbad", "id": "060750008311", "state": "ca", "lng": "-117.329296", "name": "carlsbad seaside academy"}, {"street": "3557 monroe st.", "phone": "7603315100", "lat": "33.163664", "county": "san diego", "zip": "92008", "website": "www.carlsbadusd.k12.ca.us", "source": "schools", "location": {"__class__": "tuple", "__value__": [33.163664, -117.329296]}, "city": "carlsbad", "id": "060750000709", "state": "ca", "lng": "-117.329296", "name": "carlsbad high"}]}, {"__class__": "tuple", "__value__": [{"street": "1405 park blvd", "phone": "6195257460", "lat": "32.7200166", "county": "san diego", "zip": "92101", "website": null, "source": "places", "location": {"__class__": "tuple", "__value__": [32.7200166, -117.1531702]}, "city": "san diego", "id": "chijuzctkj9u2yar_pmp8pybivq", "state": "ca", "lng": "-117.1531702", "name": "san diego communication"}, {"street": "1405 park blvd", "phone": "6195257455", "lat": "32.7200025", "county": "san diego", "zip": "92101", "website": "https://www.sandiegounified.org/schools/san-diego-high-educational-complex", "source": "places", "location": {"__class__": "tuple", "__value__": [32.7200025, -117.1531757]}, "city": "san diego", "id": "chij6wcslafu2yar22n4zyjbbwa", "state": "ca", "lng": "-117.1531757", "name": "san diego high"}]}, {"__class__": "tuple", "__value__": [{"street": "8248 villa oak dr", "phone": "9167283216", "lat": "38.7051849", "county": "sacramento", "zip": "95610", "website": null, "source": "places", "location": {"__class__": "tuple", "__value__": [38.7051849, -121.2555853]}, "city": "citrus heights", "id": "chijsxr_ihhgmoar7dwmspmgkzi", "state": "ca", "lng": "-121.2555853", "name": "woodside discovery club"}, {"street": "8248 villa oak dr", "phone": "9169715216", "lat": "38.7051849", "county": "sacramento", "zip": "95610", "website": "www.sanjuan.edu/woodside", "source": "places", "location": {"__class__": "tuple", "__value__": [38.7051849, -121.2555853]}, "city": "citrus heights", "id": "chijsxr_ihhgmoarybndipicvgq", "state": "ca", "lng": "-121.2555853", "name": "woodside k-8"}]}, {"__class__": "tuple", "__value__": [{"street": "1325 n college ave", "phone": "9094476347", "lat": "34.107738", "county": "los angeles", "zip": "91711", "website": "bayanclaremont.org/", "source": "places", "location": {"__class__": "tuple", "__value__": [34.107738, -117.7163325]}, "city": "claremont", "id": "chijjfvhumgxw4ardcw19klrmb0", "state": "ca", "lng": "-117.7163325", "name": "bayan claremont"}, {"street": null, "phone": "9513942287", "lat": "34.107738", "county": "los angeles", "zip": "91711", "website": "www.actslibrary.org/", "source": "places", "location": {"__class__": "tuple", "__value__": [34.107738, -117.7163325]}, "city": "claremont", "id": "chijjfvhumgxw4arndrgcsqn-8k", "state": "ca", "lng": "-117.7163325", "name": "saint athanasius and saint cyril coptic orthodox theological (acts)"}]}, {"__class__": "tuple", "__value__": [{"street": "2709 media center dr", "phone": null, "lat": "34.1107058", "county": "los angeles", "zip": "90065", "website": null, "source": "places", "location": {"__class__": "tuple", "__value__": [34.1107058, -118.2452582]}, "city": "los angeles", "id": "chijmxxq8yzbwoarsz8vssybc48", "state": "ca", "lng": "-118.2452582", "name": "marley"}, {"street": "2709 media center dr", "phone": "3235392810", "lat": "34.1108005", "county": "los angeles", "zip": "90065", "website": "losfelizarts.org/", "source": "places", "location": {"__class__": "tuple", "__value__": [34.1108005, -118.2454443]}, "city": "los angeles", "id": "chiji0x5zdlgwoarts4hlymhkoi", "state": "ca", "lng": "-118.2454443", "name": "los feliz charter for the arts"}]}, {"__class__": "tuple", "__value__": [{"street": "21070 homestead rd", "phone": null, "lat": "37.337249", "county": "santa clara", "zip": "95014", "website": "www.svks.org/", "source": "places", "location": {"__class__": "tuple", "__value__": [37.337249, -122.0434186]}, "city": "cupertino", "id": "chij68b-5jo0j4ar-4gewtna69k", "state": "ca", "lng": "-122.0434186", "name": "silicon valley korean office"}, {"street": null, "phone": null, "lat": "37.318203", "county": "santa clara", "zip": "95014", "website": "www.deanza.edu/", "source": "places", "location": {"__class__": "tuple", "__value__": [37.318203, -122.0429315]}, "city": "cupertino", "id": "chij80pa6vo0j4arameoagm1ufo", "state": "ca", "lng": "-122.0429315", "name": "mq2a"}]}, {"__class__": "tuple", "__value__": [{"street": "8248 villa oak dr", "phone": "9167283216", "lat": "38.7051849", "county": "sacramento", "zip": "95610", "website": null, "source": "places", "location": {"__class__": "tuple", "__value__": [38.7051849, -121.2555853]}, "city": "citrus heights", "id": "chijsxr_ihhgmoar7dwmspmgkzi", "state": "ca", "lng": "-121.2555853", "name": "woodside discovery club"}, {"street": "8248 villa oak dr.", "phone": "9169715216", "lat": "38.705223", "county": "sacramento", "zip": "95610", "website": null, "source": "schools", "location": {"__class__": "tuple", "__value__": [38.705223, -121.255602]}, "city": "citrus heights", "id": "063462005828", "state": "ca", "lng": "-121.255602", "name": "woodside k-8"}]}, {"__class__": "tuple", "__value__": [{"street": "6201 winnetka ave", "phone": "8187196494", "lat": "34.1870003", "county": "los angeles", "zip": "91371", "website": "www.piercecollege.edu/offices/child_development_center/index.asp", "source": "places", "location": {"__class__": "tuple", "__value__": [34.1870003, -118.5804605]}, "city": "los angeles", "id": "chijrwc8skqewoarczedbsy1sjc", "state": "ca", "lng": "-118.5804605", "name": "pierce college child development center"}, {"street": null, "phone": null, "lat": "34.1824425", "county": "los angeles", "zip": "91371", "website": null, "source": "places", "location": {"__class__": "tuple", "__value__": [34.1824425, -118.574732]}, "city": "los angeles", "id": "chijgruwxvozwoarhwkxckfzggi", "state": "ca", "lng": "-118.574732", "name": "pierce college drop-off"}]}, {"__class__": "tuple", "__value__": [{"street": "14630 lanark st", "phone": "8187817665", "lat": "34.2169773", "county": "los angeles", "zip": "91402", "website": "calburkehs-lausd-ca.schoolloop.com/cms/page_view?d=x&piid=&vpid=1402479707773", "source": "places", "location": {"__class__": "tuple", "__value__": [34.2169773, -118.4520149]}, "city": "panorama city", "id": "chij9uumhzkxwoarnai3xuxzqhg", "state": "ca", "lng": "-118.4520149", "name": "cal burke high"}, {"street": "14630 lanark st", "phone": "8187817665", "lat": "34.2175865", "county": "los angeles", "zip": "91402", "website": "www.lausd.k12.ca.us/east_valley_continuation_hs/", "source": "places", "location": {"__class__": "tuple", "__value__": [34.2175865, -118.4525702]}, "city": "los angeles", "id": "chijw9z8ydkxwoarg6wnuq5gzns", "state": "ca", "lng": "-118.4525702", "name": "east valley new continuation"}]}, {"__class__": "tuple", "__value__": [{"street": null, "phone": null, "lat": "33.971234", "county": "los angeles", "zip": "90003", "website": null, "source": "places", "location": {"__class__": "tuple", "__value__": [33.971234, -118.274271]}, "city": "los angeles", "id": "chij_4s6slbjwoareoug6llovpi", "state": "ca", "lng": "-118.274271", "name": "public elementary"}, {"street": null, "phone": null, "lat": "33.961654", "county": "los angeles", "zip": "90001", "website": null, "source": "places", "location": {"__class__": "tuple", "__value__": [33.961654, -118.251527]}, "city": "los angeles", "id": "chijcxndbxxjwoarlp7uno6jf3c", "state": "ca", "lng": "-118.251527", "name": "public elem"}]}, {"__class__": "tuple", "__value__": [{"street": "3435 don pedro rd.", "phone": "2095561610", "lat": "37.58488", "county": "stanislaus", "zip": "95307", "website": "www.ceres.k12.ca.us", "source": "schools", "location": {"__class__": "tuple", "__value__": [37.58488, -120.932781]}, "city": "ceres", "id": "060813010691", "state": "ca", "lng": "-120.932781", "name": "whitmore charter school of personalized learning"}, {"street": "3435 don pedro rd.", "phone": "2095561610", "lat": "37.58488", "county": "stanislaus", "zip": "95307", "website": "www.ceres.k12.ca.us", "source": "schools", "location": {"__class__": "tuple", "__value__": [37.58488, -120.932781]}, "city": "ceres", "id": "060813011487", "state": "ca", "lng": "-120.932781", "name": "whitmore charter school of art & technology"}]}, {"__class__": "tuple", "__value__": [{"street": "200 weaver bally rd.", "phone": "5306236104", "lat": "40.738368", "county": "trinity", "zip": "96093", "website": null, "source": "schools", "location": {"__class__": "tuple", "__value__": [40.738368, -122.953014]}, "city": "weaverville", "id": "060133108416", "state": "ca", "lng": "-122.953014", "name": "trinity river community day"}, {"street": "321 victory ln.", "phone": "5306236127", "lat": "40.738526", "county": "trinity", "zip": "96093", "website": "www.trinitywolves.org/", "source": "schools", "location": {"__class__": "tuple", "__value__": [40.738526, -122.948377]}, "city": "weaverville", "id": "060133106605", "state": "ca", "lng": "-122.948377", "name": "trinity high"}]}, {"__class__": "tuple", "__value__": [{"street": "123 w. 59th st.", "phone": "3232358400", "lat": "33.98717", "county": "los angeles", "zip": "90003", "website": null, "source": "schools", "location": {"__class__": "tuple", "__value__": [33.98717, -118.274751]}, "city": "los angeles", "id": "062271012950", "state": "ca", "lng": "-118.274751", "name": "aspire slauson academy charter"}, {"street": "123 w. 59th st.", "phone": "3232358400", "lat": "33.98717", "county": "los angeles", "zip": "90003", "website": null, "source": "schools", "location": {"__class__": "tuple", "__value__": [33.98717, -118.274751]}, "city": "los angeles", "id": "062271012967", "state": "ca", "lng": "-118.274751", "name": "aspire juanita tate academy charter"}]}, {"__class__": "tuple", "__value__": [{"street": "29551 sienna pkwy.", "phone": "9492345922", "lat": "33.553646", "county": "orange", "zip": "92694", "website": null, "source": "schools", "location": {"__class__": "tuple", "__value__": [33.553646, -117.637248]}, "city": "ladera ranch", "id": "060744011233", "state": "ca", "lng": "-117.637248", "name": "ladera ranch middle"}, {"street": "29551 sienna pkwy.", "phone": "9492345915", "lat": "33.553646", "county": "orange", "zip": "92694", "website": null, "source": "schools", "location": {"__class__": "tuple", "__value__": [33.553646, -117.637248]}, "city": "ladera ranch", "id": "060744011248", "state": "ca", "lng": "-117.637248", "name": "ladera ranch elementary"}]}, {"__class__": "tuple", "__value__": [{"street": "18 ocean rd", "phone": null, "lat": "34.4152388", "county": "santa barbara", "zip": "93117", "website": "education.ucsb.edu/", "source": "places", "location": {"__class__": "tuple", "__value__": [34.4152388, -119.8502542]}, "city": "isla vista", "id": "chijoenycg8_6yar4cqgobfqiqu", "state": "ca", "lng": "-119.8502542", "name": "gevirtz graduate of education, university of california santa barbara"}, {"street": "18 ocean rd", "phone": null, "lat": "34.4161523", "county": "santa barbara", "zip": "93117", "website": null, "source": "places", "location": {"__class__": "tuple", "__value__": [34.4161523, -119.8492265]}, "city": "isla vista", "id": "chijsy4uh28_6yarygmy3ojw5kk", "state": "ca", "lng": "-119.8492265", "name": "robertson gym"}]}, {"__class__": "tuple", "__value__": [{"street": "400 w 1st st", "phone": null, "lat": "39.7272851", "county": "butte", "zip": "95928", "website": null, "source": "places", "location": {"__class__": "tuple", "__value__": [39.7272851, -121.8476117]}, "city": "chico", "id": "chijhbygekung4ar-zncphymo8a", "state": "ca", "lng": "-121.8476117", "name": "csuc"}, {"street": "400 w 1st st", "phone": null, "lat": "39.7278072", "county": "butte", "zip": "95929", "website": null, "source": "places", "location": {"__class__": "tuple", "__value__": [39.7278072, -121.844952]}, "city": "chico", "id": "chij84qgvkung4arexia7ugytog", "state": "ca", "lng": "-121.844952", "name": "chico state job fair"}]}, {"__class__": "tuple", "__value__": [{"street": "41701 stetson ave", "phone": "9517655150", "lat": "33.7284746", "county": "riverside", "zip": "92544", "website": "hemethigh.com/", "source": "places", "location": {"__class__": "tuple", "__value__": [33.7284746, -116.9344634]}, "city": "hemet", "id": "chij4a_0dlru24armod-zrwzc0m", "state": "ca", "lng": "-116.9344634", "name": "hemet high"}, {"street": "26400 dartmouth st", "phone": "9519255155", "lat": "33.737404", "county": "riverside", "zip": "92544", "website": "www.cde.ca.gov/re/sd/details.asp?cds=33670820115162&public=y", "source": "places", "location": {"__class__": "tuple", "__value__": [33.737404, -116.9366876]}, "city": "hemet", "id": "chijssdypkhv24arud4wu1ftrwa", "state": "ca", "lng": "-116.9366876", "name": "hemet academy for applied academics and technology"}]}, {"__class__": "tuple", "__value__": [{"street": "600 cibola st", "phone": "7603265221", "lat": "34.8344045", "county": "san bernardino", "zip": "92363", "website": "www.sbcounty.gov/psd", "source": "places", "location": {"__class__": "tuple", "__value__": [34.8344045, -114.6032945]}, "city": "needles", "id": "chijhdm3yxyjzoarvl4ldedhguk", "state": "ca", "lng": "-114.6032945", "name": "needles head start/state preschool"}, {"street": "1600 washington st", "phone": "7603262191", "lat": "34.8397768", "county": "san bernardino", "zip": "92363", "website": "nhs.needlesusd.org/", "source": "places", "location": {"__class__": "tuple", "__value__": [34.8397768, -114.6158441]}, "city": "needles", "id": "chiju4uatwijzoarjmb-pswygts", "state": "ca", "lng": "-114.6158441", "name": "needles high"}]}, {"__class__": "tuple", "__value__": [{"street": "2695 s. valentine ave.", "phone": "5592336501", "lat": "36.694154", "county": "fresno", "zip": "93706", "website": "www.westpark.k12.ca.us", "source": "schools", "location": {"__class__": "tuple", "__value__": [36.694154, -119.854179]}, "city": "fresno", "id": "064206006888", "state": "ca", "lng": "-119.854179", "name": "west park elementary"}, {"street": "2695 s. valentine ave.", "phone": "5592336501", "lat": "36.694154", "county": "fresno", "zip": "93706", "website": "www.westpark.k12.ca.us", "source": "schools", "location": {"__class__": "tuple", "__value__": [36.694154, -119.854179]}, "city": "fresno", "id": "064206003032", "state": "ca", "lng": "-119.854179", "name": "west park charter academy"}]}, {"__class__": "tuple", "__value__": [{"street": "5927 la granada", "phone": "8587561141", "lat": "33.021393", "county": "san diego", "zip": "92067", "website": null, "source": "schools", "location": {"__class__": "tuple", "__value__": [33.021393, -117.206763]}, "city": "rancho santa fe", "id": "063174004910", "state": "ca", "lng": "-117.206763", "name": "r. roger rowe elementary"}, {"street": "5927 la granada", "phone": "8587561141", "lat": "33.0214", "county": "san diego", "zip": "92067", "website": null, "source": "schools", "location": {"__class__": "tuple", "__value__": [33.0214, -117.206787]}, "city": "rancho santa fe", "id": "063174004911", "state": "ca", "lng": "-117.206787", "name": "r. roger rowe middle"}]}, {"__class__": "tuple", "__value__": [{"street": "6905 kramer st", "phone": "8583976900", "lat": "32.7761097", "county": "san diego", "zip": "92111", "website": "www.sandi.net/carson", "source": "places", "location": {"__class__": "tuple", "__value__": [32.7761097, -117.1709585]}, "city": "san diego", "id": "chijks5y8epv2yarrecuxh6j5nk", "state": "ca", "lng": "-117.1709585", "name": "carson elementary"}, {"street": "6905 kramer st", "phone": "8585735790", "lat": "32.7756403", "county": "san diego", "zip": "92111", "website": null, "source": "places", "location": {"__class__": "tuple", "__value__": [32.7756403, -117.1711242]}, "city": "san diego", "id": "chijks5y8epv2yaredxtkgspeqe", "state": "ca", "lng": "-117.1711242", "name": "carson pre"}]}, {"__class__": "tuple", "__value__": [{"street": "83600 trona rd", "phone": "7603722868", "lat": "35.7717531", "county": "san bernardino", "zip": "93562", "website": "trona.tjusd.net/elementary", "source": "places", "location": {"__class__": "tuple", "__value__": [35.7717531, -117.3702288]}, "city": "searles valley", "id": "chijq435p-c5wyarfndpfvckxdq", "state": "ca", "lng": "-117.3702288", "name": "trona elementary"}, {"street": "83600 trona rd.", "phone": "7603722824", "lat": "35.770643", "county": "san bernardino", "zip": "93562", "website": null, "source": "schools", "location": {"__class__": "tuple", "__value__": [35.770643, -117.370026]}, "city": "trona", "id": "063984006609", "state": "ca", "lng": "-117.370026", "name": "trona high"}]}, {"__class__": "tuple", "__value__": [{"street": "10455 balboa blvd", "phone": null, "lat": "34.2608407", "county": "los angeles", "zip": "91344", "website": null, "source": "places", "location": {"__class__": "tuple", "__value__": [34.2608407, -118.5028126]}, "city": "los angeles", "id": "chijiystg5gawoar47m700px8vg", "state": "ca", "lng": "-118.5028126", "name": "valley region high"}, {"street": "10445 balboa blvd", "phone": "8188327750", "lat": "34.259803", "county": "los angeles", "zip": "91344", "website": "https://vaasc-lausd-ca.schoolloop.com/", "source": "places", "location": {"__class__": "tuple", "__value__": [34.259803, -118.502783]}, "city": "los angeles", "id": "chijiz_qnpgawoarqxrhmzviim4", "state": "ca", "lng": "-118.502783", "name": "valley academy of arts and sciences"}]}, {"__class__": "tuple", "__value__": [{"street": "1330 w pico blvd", "phone": null, "lat": "34.0425243", "county": "los angeles", "zip": "90015", "website": null, "source": "places", "location": {"__class__": "tuple", "__value__": [34.0425243, -118.2740851]}, "city": "los angeles", "id": "chijm72ztl7hwoarodksqsl7nl4", "state": "ca", "lng": "-118.2740851", "name": "lasp"}, {"street": "1000 grattan st", "phone": "2133808990", "lat": "34.0483172", "county": "los angeles", "zip": "90015", "website": "www.lausd.k12.ca.us/10th_st_el/", "source": "places", "location": {"__class__": "tuple", "__value__": [34.0483172, -118.2732352]}, "city": "los angeles", "id": "chije3bqhl3hwoarmy4kicvguci", "state": "ca", "lng": "-118.2732352", "name": "tenth street elementary"}]}, {"__class__": "tuple", "__value__": [{"street": "445 trinity ave", "phone": "5596655683", "lat": "37.1200388", "county": "madera", "zip": "93610", "website": null, "source": "places", "location": {"__class__": "tuple", "__value__": [37.1200388, -120.2614873]}, "city": "chowchilla", "id": "chijedhtvct8k4arptbrcsntr9u", "state": "ca", "lng": "-120.2614873", "name": "chowchilla alternative edu center"}, {"street": "805 humboldt ave", "phone": "5596651331", "lat": "37.116291", "county": "madera", "zip": "93610", "website": "www.chowchillahigh.k12.ca.us/", "source": "places", "location": {"__class__": "tuple", "__value__": [37.116291, -120.2627237]}, "city": "chowchilla", "id": "chijcswg1sl8k4arbiy-yvyc10w", "state": "ca", "lng": "-120.2627237", "name": "chowchilla high"}]}, {"__class__": "tuple", "__value__": [{"street": "400 w. harding st.", "phone": "7074640399", "lat": "41.767355", "county": "del norte", "zip": "95531", "website": "www.delnorte.k12.ca.us", "source": "schools", "location": {"__class__": "tuple", "__value__": [41.767355, -124.206482]}, "city": "crescent city", "id": "069106308462", "state": "ca", "lng": "-124.206482", "name": "del norte community"}, {"street": "1301 el dorado st.", "phone": "7074640274", "lat": "41.769525", "county": "del norte", "zip": "95531", "website": "www.delnorte.k12.ca.us", "source": "schools", "location": {"__class__": "tuple", "__value__": [41.769525, -124.209239]}, "city": "crescent city", "id": "061077001193", "state": "ca", "lng": "-124.209239", "name": "del norte high"}]}, {"__class__": "tuple", "__value__": [{"street": "555 s. clay st.", "phone": "7608782426", "lat": "36.803214", "county": "inyo", "zip": "93526", "website": null, "source": "schools", "location": {"__class__": "tuple", "__value__": [36.803214, -118.199458]}, "city": "independence", "id": "069101104487", "state": "ca", "lng": "-118.199458", "name": "opportunity"}, {"street": "555 s clay st", "phone": "7608782426", "lat": "36.802241", "county": "inyo", "zip": "93526", "website": "icsos.us/", "source": "places", "location": {"__class__": "tuple", "__value__": [36.802241, -118.198464]}, "city": "independence", "id": "chijlx5teue9v4ardfwy_csa0u8", "state": "ca", "lng": "-118.198464", "name": "inyo county superintendent ofs"}]}, {"__class__": "tuple", "__value__": [{"street": "4620 cesar chavez ave.", "phone": "3232698161", "lat": "34.040258", "county": "los angeles", "zip": "90022", "website": "http://brooklynes-lausd-ca.schoolloop.com", "source": "schools", "location": {"__class__": "tuple", "__value__": [34.040258, -118.166644]}, "city": "los angeles", "id": "062271002869", "state": "ca", "lng": "-118.166644", "name": "brooklyn avenue elementary"}, {"street": null, "phone": null, "lat": "34.0378156", "county": "los angeles", "zip": "90022", "website": null, "source": "places", "location": {"__class__": "tuple", "__value__": [34.0378156, -118.1598165]}, "city": "east los angeles", "id": "chijv4wza3jpwoar8nhm9u3kcvm", "state": "ca", "lng": "-118.1598165", "name": "riggin avenue"}]}, {"__class__": "tuple", "__value__": [{"street": "1723 cordova st.", "phone": "3237307160", "lat": "34.0393", "county": "los angeles", "zip": "90007", "website": "www.caminonuevo.org", "source": "schools", "location": {"__class__": "tuple", "__value__": [34.0393, -118.295211]}, "city": "los angeles", "id": "062271012805", "state": "ca", "lng": "-118.295211", "name": "camino nuevo elementary no. 3"}, {"street": "1723 cordova st", "phone": "3237307165", "lat": "34.0392675", "county": "los angeles", "zip": "90007", "website": "www.caminonuevo.org/", "source": "places", "location": {"__class__": "tuple", "__value__": [34.0392675, -118.295279]}, "city": "los angeles", "id": "chijt3wrw4vhwoarrwmispskun0", "state": "ca", "lng": "-118.295279", "name": "camino nuevo charter academy - castellanos"}]}, {"__class__": "tuple", "__value__": [{"street": "1072 s de anza blvd", "phone": null, "lat": "37.3075911", "county": "santa clara", "zip": "95129", "website": "www.ena.co.jp/world/usa/009.php", "source": "places", "location": {"__class__": "tuple", "__value__": [37.3075911, -122.0315648]}, "city": "san jose", "id": "chijxzr7lgs1j4arn3rlfdtfsqm", "state": "ca", "lng": "-122.0315648", "name": "ena"}, {"street": "1101 strayer dr.", "phone": "4082532850", "lat": "37.306516", "county": "santa clara", "zip": "95129", "website": null, "source": "schools", "location": {"__class__": "tuple", "__value__": [37.306516, -122.007439]}, "city": "san jose", "id": "061029001129", "state": "ca", "lng": "-122.007439", "name": "nelson s. dilworth elementary"}]}, {"__class__": "tuple", "__value__": [{"street": "4500 highway 166", "phone": "6617662293", "lat": "34.94358", "county": "santa barbara", "zip": "93254", "website": null, "source": "schools", "location": {"__class__": "tuple", "__value__": [34.94358, -119.673681]}, "city": "new cuyama", "id": "060000901478", "state": "ca", "lng": "-119.673681", "name": "sierra madre high (continuation)"}, {"street": "4500 highway 166", "phone": "6617662293", "lat": "34.943828", "county": "santa barbara", "zip": "93254", "website": "www.cuyamaunified.org", "source": "schools", "location": {"__class__": "tuple", "__value__": [34.943828, -119.674697]}, "city": "new cuyama", "id": "060000908779", "state": "ca", "lng": "-119.674697", "name": "cuyama valley high"}]}, {"__class__": "tuple", "__value__": [{"street": "1860 silverwood dr", "phone": "9256853533", "lat": "37.9855988", "county": "contra costa", "zip": "94519", "website": "www.mdusd.org/schools/shadelands", "source": "places", "location": {"__class__": "tuple", "__value__": [37.9855988, -122.0028751]}, "city": "concord", "id": "chij3b7folpnhyarcnhsrwmoo0q", "state": "ca", "lng": "-122.0028751", "name": "shadelands preschool"}, {"street": "1860 silverwood dr", "phone": "9256853533", "lat": "37.9855824", "county": "contra costa", "zip": "94519", "website": "www.cde.ca.gov/re/sd/details.asp?cds=07617546004287&public=y", "source": "places", "location": {"__class__": "tuple", "__value__": [37.9855824, -122.002923]}, "city": "concord", "id": "chijkvbyolpnhyarwiyws6a2f6i", "state": "ca", "lng": "-122.002923", "name": "shadelands special education"}]}, {"__class__": "tuple", "__value__": [{"street": "5975 armaga spring rd", "phone": "3103778541", "lat": "33.7722033", "county": "los angeles", "zip": "90275", "website": "mountolivelutheranrpv.church/", "source": "places", "location": {"__class__": "tuple", "__value__": [33.7722033, -118.3839951]}, "city": "rancho palos verdes", "id": "chij_1nvey5l3yar2bcyn5poupi", "state": "ca", "lng": "-118.3839951", "name": "mt olive lutheran church"}, {"street": "5975 armaga spring rd", "phone": "3103778821", "lat": "33.7718098", "county": "los angeles", "zip": "90275", "website": "www.mtolivepreschoolrpv.com/", "source": "places", "location": {"__class__": "tuple", "__value__": [33.7718098, -118.3836276]}, "city": "rancho palos verdes", "id": "chij_1nvey5l3yar_qascfvms8g", "state": "ca", "lng": "-118.3836276", "name": "mount olive lutheran preschool"}]}, {"__class__": "tuple", "__value__": [{"street": "30470 pauba rd", "phone": null, "lat": "33.4971955", "county": "riverside", "zip": "92592", "website": "www.linfield.com/", "source": "places", "location": {"__class__": "tuple", "__value__": [33.4971955, -117.1305489]}, "city": "temecula", "id": "chij8_twnqf_24ar3vvph4hngk4", "state": "ca", "lng": "-117.1305489", "name": "linfield school"}, {"street": "30470 pauba rd", "phone": "9516935524", "lat": "33.4975867", "county": "riverside", "zip": "92592", "website": "www.trinityisone.com/", "source": "places", "location": {"__class__": "tuple", "__value__": [33.4975867, -117.1304336]}, "city": "temecula", "id": "chijxzxumkf_24arrz7pppqi-5a", "state": "ca", "lng": "-117.1304336", "name": "trinity lutheran church and preschool | preschool | preschool"}]}, {"__class__": "tuple", "__value__": [{"street": "1925 scott blvd", "phone": "4084234117", "lat": "37.3578244", "county": "santa clara", "zip": "95050", "website": null, "source": "places", "location": {"__class__": "tuple", "__value__": [37.3578244, -121.9594405]}, "city": "santa clara", "id": "chijvfktfzjkj4artuqbc14e_lm", "state": "ca", "lng": "-121.9594405", "name": "scott lane preschool"}, {"street": "1925 scott blvd", "phone": "4084234100", "lat": "37.3582327", "county": "santa clara", "zip": "95050", "website": "scottlane.schoolloop.com/", "source": "places", "location": {"__class__": "tuple", "__value__": [37.3582327, -121.959441]}, "city": "santa clara", "id": "chijvfktfzjkj4aryznpomlizsy", "state": "ca", "lng": "-121.959441", "name": "scott lane elementary"}]}, {"__class__": "tuple", "__value__": [{"street": "1628 e. tenth st.", "phone": "2099337305", "lat": "37.930202", "county": "san joaquin", "zip": "95206", "website": null, "source": "schools", "location": {"__class__": "tuple", "__value__": [37.930202, -121.258727]}, "city": "stockton", "id": "063801006436", "state": "ca", "lng": "-121.258727", "name": "van buren elementary"}, {"street": null, "phone": null, "lat": "37.9354799", "county": "san joaquin", "zip": "95206", "website": null, "source": "places", "location": {"__class__": "tuple", "__value__": [37.9354799, -121.2632786]}, "city": "stockton", "id": "chijlwiantmskiarffi_cae9emw", "state": "ca", "lng": "-121.2632786", "name": "garfield elementary"}]}, {"__class__": "tuple", "__value__": [{"street": "32861 calle perfecto", "phone": "9492345341", "lat": "33.485583", "county": "orange", "zip": "92675", "website": null, "source": "places", "location": {"__class__": "tuple", "__value__": [33.485583, -117.670324]}, "city": "san juan capistrano", "id": "chijvdvma7_x3iarjlslerqhlbo", "state": "ca", "lng": "-117.670324", "name": "cusd child dev office preschool"}, {"street": "33122 valle rd", "phone": "9492349464", "lat": "33.4798318", "county": "orange", "zip": "92675", "website": "www.southcoastrop.org/", "source": "places", "location": {"__class__": "tuple", "__value__": [33.4798318, -117.6700335]}, "city": "san juan capistrano", "id": "chijf34g_bzx3iarcz_05htoulg", "state": "ca", "lng": "-117.6700335", "name": "rop"}]}, {"__class__": "tuple", "__value__": [{"street": "501 norcross ln", "phone": "9256257050", "lat": "37.9942496", "county": "contra costa", "zip": "94561", "website": "oak-ouesd-ca.schoolloop.com/", "source": "places", "location": {"__class__": "tuple", "__value__": [37.9942496, -121.7167027]}, "city": "oakley", "id": "chijv799j_1vhyarwzw8bmwbccy", "state": "ca", "lng": "-121.7167027", "name": "oakley elementary"}, {"street": "501 norcross ln", "phone": "9256257065", "lat": "37.9942496", "county": "contra costa", "zip": "94561", "website": null, "source": "places", "location": {"__class__": "tuple", "__value__": [37.9942496, -121.7167027]}, "city": "oakley", "id": "chijoaoijv1vhyar3g4wpgdtmsi", "state": "ca", "lng": "-121.7167027", "name": "oakley union sch district shipping"}]}, {"__class__": "tuple", "__value__": [{"street": "30951 highway 79", "phone": "7607823517", "lat": "33.275248", "county": "san diego", "zip": "92086", "website": null, "source": "schools", "location": {"__class__": "tuple", "__value__": [33.275248, -116.642924]}, "city": "warner springs", "id": "060004205341", "state": "ca", "lng": "-116.642924", "name": "warner junior/senior high"}, {"street": null, "phone": "7607823517", "lat": "33.2742044", "county": "san diego", "zip": "92086", "website": "https://sites.google.com/a/warnerusd.net/home/", "source": "places", "location": {"__class__": "tuple", "__value__": [33.2742044, -116.6427971]}, "city": "warner springs", "id": "chijstekukk424arw4w4jm_fvk4", "state": "ca", "lng": "-116.6427971", "name": "warner elementary"}]}, {"__class__": "tuple", "__value__": [{"street": "648 echandia st", "phone": "3232215880", "lat": "34.0531338", "county": "los angeles", "zip": "90033", "website": null, "source": "places", "location": {"__class__": "tuple", "__value__": [34.0531338, -118.2168156]}, "city": "los angeles", "id": "chij840qoxlgwoarh7o6czx95zs", "state": "ca", "lng": "-118.2168156", "name": "bridge street children's center"}, {"street": "2201-2273 e 4th st", "phone": null, "lat": "34.0417838", "county": "los angeles", "zip": "90033", "website": null, "source": "places", "location": {"__class__": "tuple", "__value__": [34.0417838, -118.2134197]}, "city": "los angeles", "id": "chijg0vtsqtgwoarm7fqef-_34i", "state": "ca", "lng": "-118.2134197", "name": "emily's"}]}, {"__class__": "tuple", "__value__": [{"street": null, "phone": null, "lat": "37.4616076", "county": "san mateo", "zip": "94019", "website": null, "source": "places", "location": {"__class__": "tuple", "__value__": [37.4616076, -122.4319197]}, "city": "half moon bay", "id": "chijksck3uwlj4arp-mfjgkbpfi", "state": "ca", "lng": "-122.4319197", "name": "cabrillo adult"}, {"street": "600 church st", "phone": "6507127190", "lat": "37.4624555", "county": "san mateo", "zip": "94019", "website": "cunha.schoolloop.com/", "source": "places", "location": {"__class__": "tuple", "__value__": [37.4624555, -122.4318997]}, "city": "half moon bay", "id": "chijeyckwa10j4arelxndzslqe8", "state": "ca", "lng": "-122.4318997", "name": "manuel f. cunha intermediate"}]}, {"__class__": "tuple", "__value__": [{"street": "1300 murray rd", "phone": "7078396480", "lat": "40.9548184", "county": "humboldt", "zip": "95519", "website": "www.nohum.k12.ca.us/", "source": "places", "location": {"__class__": "tuple", "__value__": [40.9548184, -124.1085309]}, "city": "mckinleyville", "id": "chijsqzaw8ra0vqruw991k5qrdu", "state": "ca", "lng": "-124.1085309", "name": "tsurai high"}, {"street": "1300 murray rd", "phone": "7078396400", "lat": "40.954357", "county": "humboldt", "zip": "95519", "website": "www.nohum.k12.ca.us/", "source": "places", "location": {"__class__": "tuple", "__value__": [40.954357, -124.108008]}, "city": "mckinleyville", "id": "chijjuaiz8ra0vqrmlb4ddkol9y", "state": "ca", "lng": "-124.108008", "name": "northern humboldt union high"}]}, {"__class__": "tuple", "__value__": [{"street": "550 w lexington ave", "phone": "9093974616", "lat": "34.036764", "county": "los angeles", "zip": "91766", "website": "www.cde.ca.gov/re/sd/details.asp?cds=19649076021885&public=y", "source": "places", "location": {"__class__": "tuple", "__value__": [34.036764, -117.754555]}, "city": "pomona", "id": "chijhx_b8zatw4ardzx0ktwq8gi", "state": "ca", "lng": "-117.754555", "name": "lexington elementary"}, {"street": "351 w. phillips blvd.", "phone": "9093974643", "lat": "34.044725", "county": "los angeles", "zip": "91766", "website": "www.pusd.org", "source": "schools", "location": {"__class__": "tuple", "__value__": [34.044725, -117.752836]}, "city": "pomona", "id": "063132004852", "state": "ca", "lng": "-117.752836", "name": "madison elementary"}]}, {"__class__": "tuple", "__value__": [{"street": "535 watson dr", "phone": null, "lat": "34.0932172", "county": "los angeles", "zip": "91711", "website": null, "source": "places", "location": {"__class__": "tuple", "__value__": [34.0932172, -117.723535]}, "city": "claremont", "id": "chijewk4jegxw4argn8m1ndyvzq", "state": "ca", "lng": "-117.723535", "name": "kgi"}, {"street": "160 e 10th st", "phone": null, "lat": "34.1030808", "county": "los angeles", "zip": "91711", "website": null, "source": "places", "location": {"__class__": "tuple", "__value__": [34.1030808, -117.7138524]}, "city": "claremont", "id": "chijftqvgrgxw4arp5vkjjn3kbu", "state": "ca", "lng": "-117.7138524", "name": "student services"}]}, {"__class__": "tuple", "__value__": [{"street": "315 poplar st.", "phone": "8314293883", "lat": "36.983796", "county": "santa cruz", "zip": "95062", "website": "www.sccs.santacruz.k12.ca.us", "source": "schools", "location": {"__class__": "tuple", "__value__": [36.983796, -122.009618]}, "city": "santa cruz", "id": "063560006060", "state": "ca", "lng": "-122.009618", "name": "branciforte middle"}, {"street": "840 north branciforte ave.", "phone": "8314293898", "lat": "36.981031", "county": "santa cruz", "zip": "95062", "website": "www.monarch.santacruz.k12.ca.us", "source": "schools", "location": {"__class__": "tuple", "__value__": [36.981031, -122.012434]}, "city": "santa cruz", "id": "063559010080", "state": "ca", "lng": "-122.012434", "name": "santa cruz city elementary alternative education-monarch"}]}, {"__class__": "tuple", "__value__": [{"street": "2454 nicolaus ave.", "phone": "5306562255", "lat": "38.911751", "county": "sutter", "zip": "95659", "website": null, "source": "schools", "location": {"__class__": "tuple", "__value__": [38.911751, -121.52675]}, "city": "nicolaus", "id": "061178001299", "state": "ca", "lng": "-121.52675", "name": "east nicolaus high"}, {"street": "2454 nicolaus ave.", "phone": "5306562255", "lat": "38.911751", "county": "sutter", "zip": "95659", "website": null, "source": "schools", "location": {"__class__": "tuple", "__value__": [38.911751, -121.52675]}, "city": "nicolaus", "id": "061178006769", "state": "ca", "lng": "-121.52675", "name": "three rivers high (continuation)"}]}, {"__class__": "tuple", "__value__": [{"street": "5300 west ave. l", "phone": "6619404211", "lat": "34.66022", "county": "los angeles", "zip": "93536", "website": null, "source": "schools", "location": {"__class__": "tuple", "__value__": [34.66022, -118.224719]}, "city": "lancaster", "id": "069107812747", "state": "ca", "lng": "-118.224719", "name": "onizuka camp"}, {"street": "5300 west ave. l", "phone": "6619404211", "lat": "34.66022", "county": "los angeles", "zip": "93536", "website": null, "source": "schools", "location": {"__class__": "tuple", "__value__": [34.66022, -118.224719]}, "city": "lancaster", "id": "069107812714", "state": "ca", "lng": "-118.224719", "name": "resnik camp"}]}, {"__class__": "tuple", "__value__": [{"street": null, "phone": null, "lat": "37.8331919", "county": "contra costa", "zip": "94556", "website": "www.saklan.org/", "source": "places", "location": {"__class__": "tuple", "__value__": [37.8331919, -122.133059]}, "city": "moraga", "id": "chijaxb8s02ij4arcfhpcpr30pe", "state": "ca", "lng": "-122.133059", "name": "saklan"}, {"street": null, "phone": null, "lat": "37.8213872", "county": "contra costa", "zip": "94556", "website": "https://cpes-msd-ca.schoolloop.com/", "source": "places", "location": {"__class__": "tuple", "__value__": [37.8213872, -122.1212541]}, "city": "moraga", "id": "chij24mljqajj4arfteyx4w4ib4", "state": "ca", "lng": "-122.1212541", "name": "camino pablo elementary"}]}, {"__class__": "tuple", "__value__": [{"street": "5657 recreation dr", "phone": "5308726465", "lat": "39.7516134", "county": "butte", "zip": "95969", "website": "paradiseintermediate.pusdk12.org/", "source": "places", "location": {"__class__": "tuple", "__value__": [39.7516134, -121.6113587]}, "city": "paradise", "id": "chij7sj7evpuniarnela-45g4xk", "state": "ca", "lng": "-121.6113587", "name": "paradise intermediate"}, {"street": "5911 maxwell dr", "phone": null, "lat": "39.7616281", "county": "butte", "zip": "95969", "website": null, "source": "places", "location": {"__class__": "tuple", "__value__": [39.7616281, -121.6135015]}, "city": "paradise", "id": "chijnwili7vuniar0eqwnprgel0", "state": "ca", "lng": "-121.6135015", "name": "panat usa"}]}, {"__class__": "tuple", "__value__": [{"street": "14592 oak st", "phone": "4088671550", "lat": "37.2560493", "county": "santa clara", "zip": "95070", "website": "www.saratogausd.org/domain/298", "source": "places", "location": {"__class__": "tuple", "__value__": [37.2560493, -122.0335398]}, "city": "saratoga", "id": "chij-qvntebkjoar864_l0sbuyy", "state": "ca", "lng": "-122.0335398", "name": "saratoga clubhouse"}, {"street": "14592 oak st", "phone": "4088673476", "lat": "37.2560493", "county": "santa clara", "zip": "95070", "website": "www.saratogausd.org/saratoga", "source": "places", "location": {"__class__": "tuple", "__value__": [37.2560493, -122.0335398]}, "city": "saratoga", "id": "chij-qvntebkjoarwgg65mkiy1a", "state": "ca", "lng": "-122.0335398", "name": "saratoga elementary"}]}, {"__class__": "tuple", "__value__": [{"street": "s barcelona st", "phone": null, "lat": "32.7459343", "county": null, "zip": "91977", "website": null, "source": "places", "location": {"__class__": "tuple", "__value__": [32.7459343, -116.9822197]}, "city": "spring valley", "id": "chijazk8kgza2yartdtx2jnjcl4", "state": "ca", "lng": "-116.9822197", "name": "romans"}, {"street": "9400 campo rd", "phone": "6194624000", "lat": "32.749975", "county": "san diego", "zip": "91977", "website": "www.yfcsd.org/", "source": "places", "location": {"__class__": "tuple", "__value__": [32.749975, -116.9937961]}, "city": "spring valley", "id": "chijd3bnsq1q2yarfm7qt3ovsmw", "state": "ca", "lng": "-116.9937961", "name": "san diego youth for christ"}]}, {"__class__": "tuple", "__value__": [{"street": "299 precita ave", "phone": "4156482008", "lat": "37.7474907", "county": "san francisco", "zip": "94110", "website": "www.saicsf.org/", "source": "places", "location": {"__class__": "tuple", "__value__": [37.7474907, -122.4139004]}, "city": "san francisco", "id": "chijed2pdkv-j4arjfqlhvt5lta", "state": "ca", "lng": "-122.4139004", "name": "saint anthony immaculate conception"}, {"street": "mission st", "phone": null, "lat": "37.7512394", "county": "san francisco", "zip": "94110", "website": null, "source": "places", "location": {"__class__": "tuple", "__value__": [37.7512394, -122.4183709]}, "city": "san francisco", "id": "chijlx5qk0d-j4arisjhwh40juk", "state": "ca", "lng": "-122.4183709", "name": "mission school"}]}, {"__class__": "tuple", "__value__": [{"street": "612 camino manzanas", "phone": "8054987915", "lat": "34.1981439", "county": "ventura", "zip": "91360", "website": null, "source": "places", "location": {"__class__": "tuple", "__value__": [34.1981439, -118.892129]}, "city": "thousand oaks", "id": "chijoravvnew6iar9a9utzmugeg", "state": "ca", "lng": "-118.892129", "name": "madrona child care"}, {"street": "612 camino manzanas", "phone": "8054986102", "lat": "34.1980666", "county": "ventura", "zip": "91360", "website": null, "source": "places", "location": {"__class__": "tuple", "__value__": [34.1980666, -118.8920045]}, "city": "thousand oaks", "id": "chijoravvnew6iarslmd2gl-vlg", "state": "ca", "lng": "-118.8920045", "name": "madrona elementary"}]}, {"__class__": "tuple", "__value__": [{"street": "2853 groom dr", "phone": "5102432360", "lat": "37.9750925", "county": "contra costa", "zip": "94806", "website": null, "source": "places", "location": {"__class__": "tuple", "__value__": [37.9750925, -122.33509]}, "city": "san pablo", "id": "chije8prpsd3hyaru3ekw3mmpa8", "state": "ca", "lng": "-122.33509", "name": "la heim behavioral health services"}, {"street": null, "phone": null, "lat": "37.9665601", "county": "contra costa", "zip": "94806", "website": null, "source": "places", "location": {"__class__": "tuple", "__value__": [37.9665601, -122.3486352]}, "city": "san pablo", "id": "chijiq03vn13hyaru-ydk1v9afq", "state": "ca", "lng": "-122.3486352", "name": "broadway"}]}, {"__class__": "tuple", "__value__": [{"street": "1157 s berendo st", "phone": "2137395600", "lat": "34.0497745", "county": "los angeles", "zip": "90006", "website": "www.berendoms.info/", "source": "places", "location": {"__class__": "tuple", "__value__": [34.0497745, -118.2945482]}, "city": "los angeles", "id": "chijvw0gkofhwoarlbcogjdlzg4", "state": "ca", "lng": "-118.2945482", "name": "berendo middle"}, {"street": "1157 s. berendo st.", "phone": "2134139600", "lat": "34.04999", "county": "los angeles", "zip": "90006", "website": "www.romerocharter.org", "source": "schools", "location": {"__class__": "tuple", "__value__": [34.04999, -118.294531]}, "city": "los angeles", "id": "062271011928", "state": "ca", "lng": "-118.294531", "name": "monsenor oscar romero charter middle"}]}, {"__class__": "tuple", "__value__": [{"street": "150 oak st", "phone": "4155582000", "lat": "37.7753407", "county": "san francisco", "zip": "94102", "website": "www.internationalsf.org/", "source": "places", "location": {"__class__": "tuple", "__value__": [37.7753407, -122.4217506]}, "city": "san francisco", "id": "chij_rueip-ahyarcsgky6nefrw", "state": "ca", "lng": "-122.4217506", "name": "international high of san francisco"}, {"street": "150 oak st", "phone": null, "lat": "37.7744257", "county": "san francisco", "zip": "94102", "website": "www.cais.org/", "source": "places", "location": {"__class__": "tuple", "__value__": [37.7744257, -122.4219061]}, "city": "san francisco", "id": "chijtxegjz-ahyardw1zoy_6ol0", "state": "ca", "lng": "-122.4219061", "name": "cais"}]}, {"__class__": "tuple", "__value__": [{"street": "12501 wilmington ave", "phone": "3108986340", "lat": "33.9193046", "county": "los angeles", "zip": "90222", "website": null, "source": "places", "location": {"__class__": "tuple", "__value__": [33.9193046, -118.2393869]}, "city": "compton", "id": "chijatopqlrlwoar8rbg2r1q-pq", "state": "ca", "lng": "-118.2393869", "name": "harriet tubman high"}, {"street": "12501 wilmington ave", "phone": "3108986340", "lat": "33.9189183", "county": "los angeles", "zip": "90222", "website": "www.courts.ca.gov/22176.htm", "source": "places", "location": {"__class__": "tuple", "__value__": [33.9189183, -118.2405196]}, "city": "compton", "id": "chijatopqlrlwoartpszcnvoiai", "state": "ca", "lng": "-118.2405196", "name": "cesar chavez continuation high"}]}, {"__class__": "tuple", "__value__": [{"street": "2890 middlefield rd", "phone": "6503281711", "lat": "37.4311964", "county": "santa clara", "zip": "94306", "website": "www.keysschool.com/", "source": "places", "location": {"__class__": "tuple", "__value__": [37.4311964, -122.1270415]}, "city": "palo alto", "id": "chijq_1jife6j4ar-qkg9qk3cbs", "state": "ca", "lng": "-122.1270415", "name": "keys"}, {"street": "3005 middlefield rd", "phone": "6507528061", "lat": "37.4310817", "county": "santa clara", "zip": "94306", "website": "www.kimgranttennis.com/", "source": "places", "location": {"__class__": "tuple", "__value__": [37.4310817, -122.1255057]}, "city": "palo alto", "id": "chijxz0wfle6j4arrc5tvfo46to", "state": "ca", "lng": "-122.1255057", "name": "kim grant tennis"}]}, {"__class__": "tuple", "__value__": [{"street": "1 solano st", "phone": "4154670550", "lat": "37.6859706", "county": "san mateo", "zip": "94005", "website": "www.brisbanesd.org/", "source": "places", "location": {"__class__": "tuple", "__value__": [37.6859706, -122.4080569]}, "city": "brisbane", "id": "chijawy5tsf5j4arz4__6k4t4li", "state": "ca", "lng": "-122.4080569", "name": "brisbane district superintendent"}, {"street": "1 solano st", "phone": "4154679541", "lat": "37.6861312", "county": "san mateo", "zip": "94005", "website": "www.brisbanesd.org/lipman-middle-school/", "source": "places", "location": {"__class__": "tuple", "__value__": [37.6861312, -122.4081045]}, "city": "brisbane", "id": "chijawy5tsf5j4arn2f_seqsxvq", "state": "ca", "lng": "-122.4081045", "name": "lipman middle"}]}, {"__class__": "tuple", "__value__": [{"street": "1900 refugio valley rd.", "phone": "5102311429", "lat": "37.99937", "county": "contra costa", "zip": "94547", "website": null, "source": "schools", "location": {"__class__": "tuple", "__value__": [37.99937, -122.2529]}, "city": "hercules", "id": "063255010757", "state": "ca", "lng": "-122.2529", "name": "hercules middle"}, {"street": "1900 refugio valley rd.", "phone": "5102311429", "lat": "37.99937", "county": "contra costa", "zip": "94547", "website": null, "source": "schools", "location": {"__class__": "tuple", "__value__": [37.99937, -122.2529]}, "city": "hercules", "id": "063255008691", "state": "ca", "lng": "-122.2529", "name": "hercules high"}]}, {"__class__": "tuple", "__value__": [{"street": "915 rosemarie ln", "phone": "2099547651", "lat": "37.988456", "county": "san joaquin", "zip": "95207", "website": "www.brooksidechristian.com/", "source": "places", "location": {"__class__": "tuple", "__value__": [37.988456, -121.315978]}, "city": "stockton", "id": "chijnv_8_tgmkiarq7joqmwho-a", "state": "ca", "lng": "-121.315978", "name": "brookside christian"}, {"street": "2111 quail lakes dr", "phone": "2099547651", "lat": "37.9957136", "county": "san joaquin", "zip": "95207", "website": "www.brooksidechristian.com/", "source": "places", "location": {"__class__": "tuple", "__value__": [37.9957136, -121.3356911]}, "city": "stockton", "id": "chijc-mvcjkmkiarpnwkypihvpq", "state": "ca", "lng": "-121.3356911", "name": "lakeside christian"}]}, {"__class__": "tuple", "__value__": [{"street": "9944 highland ave", "phone": "9099805400", "lat": "34.1373616", "county": "san bernardino", "zip": "91737", "website": "highlandave.org/hacs/preschool/", "source": "places", "location": {"__class__": "tuple", "__value__": [34.1373616, -117.5874705]}, "city": "rancho cucamonga", "id": "chijhu12gva2w4ar3x5kyvtloha", "state": "ca", "lng": "-117.5874705", "name": "highland avenue christian"}, {"street": "9944 highland ave", "phone": "9099893517", "lat": "34.1373616", "county": "san bernardino", "zip": "91737", "website": "highlandave.org/", "source": "places", "location": {"__class__": "tuple", "__value__": [34.1373616, -117.5874705]}, "city": "rancho cucamonga", "id": "chijhu12gva2w4arzbc0a_efvwq", "state": "ca", "lng": "-117.5874705", "name": "highland pre-school"}]}, {"__class__": "tuple", "__value__": [{"street": null, "phone": null, "lat": "38.6343486", "county": "sacramento", "zip": "95608", "website": null, "source": "places", "location": {"__class__": "tuple", "__value__": [38.6343486, -121.3405068]}, "city": "carmichael", "id": "chijcuy0zqbemoartj8-qd8u9ns", "state": "ca", "lng": "-121.3405068", "name": "excelsior high"}, {"street": "5325 engle rd", "phone": "9164810100", "lat": "38.6331902", "county": "sacramento", "zip": "95608", "website": "www.mcspreschool.com/", "source": "places", "location": {"__class__": "tuple", "__value__": [38.6331902, -121.3409961]}, "city": "carmichael", "id": "chijhfban6femoar0e-a271mtlo", "state": "ca", "lng": "-121.3409961", "name": "montessori children's"}]}, {"__class__": "tuple", "__value__": [{"street": "895 barrett ave.", "phone": "4082016340", "lat": "37.122975", "county": "santa clara", "zip": "95037", "website": "www.mhu.k12.ca.us", "source": "schools", "location": {"__class__": "tuple", "__value__": [37.122975, -121.631204]}, "city": "morgan hill", "id": "062583010404", "state": "ca", "lng": "-121.631204", "name": "barrett elementary"}, {"street": "1425 e dunne ave", "phone": "4082016440", "lat": "37.1348261", "county": "santa clara", "zip": "95037", "website": "nordstrom.mhusd.org/", "source": "places", "location": {"__class__": "tuple", "__value__": [37.1348261, -121.6265271]}, "city": "morgan hill", "id": "chijvs-rsh3fkyarfleb2lkmpzw", "state": "ca", "lng": "-121.6265271", "name": "nordstrom elementary"}]}, {"__class__": "tuple", "__value__": [{"street": null, "phone": null, "lat": "32.8150501", "county": "imperial", "zip": "92250", "website": null, "source": "places", "location": {"__class__": "tuple", "__value__": [32.8150501, -115.3869313]}, "city": "holtville", "id": "chijg2smcxlp14ar7ubgc-xamxm", "state": "ca", "lng": "-115.3869313", "name": "san webb continuation high"}, {"street": "755 olive ave", "phone": "7603562926", "lat": "32.8152733", "county": "imperial", "zip": "92250", "website": "https://hhs.husd.net/", "source": "places", "location": {"__class__": "tuple", "__value__": [32.8152733, -115.3863482]}, "city": "holtville", "id": "chijbwjfenlp14ars8rycf52hxk", "state": "ca", "lng": "-115.3863482", "name": "holtville high"}]}, {"__class__": "tuple", "__value__": [{"street": "10170 huennekens st.", "phone": "8586784812", "lat": "32.90276", "county": "san diego", "zip": "92121", "website": "www.laurelprep.com", "source": "schools", "location": {"__class__": "tuple", "__value__": [32.90276, -117.184081]}, "city": "san diego", "id": "063432013681", "state": "ca", "lng": "-117.184081", "name": "laurel preparatory academy"}, {"street": "10170 huennekens st.", "phone": "8586782050", "lat": "32.902729", "county": "san diego", "zip": "92121", "website": "www.audeocharterschool.net", "source": "schools", "location": {"__class__": "tuple", "__value__": [32.902729, -117.184139]}, "city": "san diego", "id": "063432010634", "state": "ca", "lng": "-117.184139", "name": "audeo charter"}]}, {"__class__": "tuple", "__value__": [{"street": "441 w linwood ave", "phone": "2096679667", "lat": "37.4781924", "county": "stanislaus", "zip": "95380", "website": "www.fusioncharter.org/", "source": "places", "location": {"__class__": "tuple", "__value__": [37.4781924, -120.8539942]}, "city": "turlock", "id": "chijb5wmsnihkyarl2fzkg4016k", "state": "ca", "lng": "-120.8539942", "name": "fusion charter"}, {"street": "ca-99", "phone": null, "lat": "37.4757073", "county": "stanislaus", "zip": "95380", "website": null, "source": "places", "location": {"__class__": "tuple", "__value__": [37.4757073, -120.8537422]}, "city": "turlock", "id": "chij_4iq1yogkyardw15qrc9j7c", "state": "ca", "lng": "-120.8537422", "name": "turlock airpark-9cl0"}]}, {"__class__": "tuple", "__value__": [{"street": null, "phone": null, "lat": "38.0074224", "county": "marin", "zip": "94903", "website": null, "source": "places", "location": {"__class__": "tuple", "__value__": [38.0074224, -122.5544225]}, "city": "san rafael", "id": "chij0_qbnzexhyarqdj9_pi67fs", "state": "ca", "lng": "-122.5544225", "name": "don timoteo"}, {"street": "1055 las ovejas ave", "phone": "4154916494", "lat": "38.0173882", "county": "marin", "zip": "94903", "website": "trcmarin.org/", "source": "places", "location": {"__class__": "tuple", "__value__": [38.0173882, -122.5665604]}, "city": "san rafael", "id": "chijxa8nfmsxhyarxcxbec7os5a", "state": "ca", "lng": "-122.5665604", "name": "technology resource center of marin"}]}, {"__class__": "tuple", "__value__": [{"street": "175 lawrence ave", "phone": "8317227811", "lat": "36.9234047", "county": "santa cruz", "zip": "95076", "website": "www.givingtreeacademy.com/", "source": "places", "location": {"__class__": "tuple", "__value__": [36.9234047, -121.7824121]}, "city": "watsonville", "id": "chijhs6jqpyajoarjvfiqgncy20", "state": "ca", "lng": "-121.7824121", "name": "giving tree academy"}, {"street": "175 lawrence ave", "phone": "8317227811", "lat": "36.9234096", "county": "santa cruz", "zip": "95076", "website": null, "source": "places", "location": {"__class__": "tuple", "__value__": [36.9234096, -121.7824111]}, "city": "watsonville", "id": "chijo2i1bfqajoar6thj5rr5kf4", "state": "ca", "lng": "-121.7824111", "name": "noah's ark preschool & day carecenter"}]}, {"__class__": "tuple", "__value__": [{"street": "47950 dune palms rd", "phone": "7607774200", "lat": "33.702236", "county": "riverside", "zip": "92253", "website": "https://www.dsusd.us/", "source": "places", "location": {"__class__": "tuple", "__value__": [33.702236, -116.275651]}, "city": "la quinta", "id": "chijy0wpl1f42oar642df9-mmca", "state": "ca", "lng": "-116.275651", "name": "desert sands unified district"}, {"street": "47950 dune palms rd", "phone": "7607718555", "lat": "33.7005611", "county": "riverside", "zip": "92253", "website": null, "source": "places", "location": {"__class__": "tuple", "__value__": [33.7005611, -116.2763187]}, "city": "la quinta", "id": "chijy0wpl1f42oarjkleawljyc4", "state": "ca", "lng": "-116.2763187", "name": "horizons"}]}, {"__class__": "tuple", "__value__": [{"street": "300 e. spruce st.", "phone": "5308464791", "lat": "39.367238", "county": "butte", "zip": "95948", "website": "www.gusd.org", "source": "schools", "location": {"__class__": "tuple", "__value__": [39.367238, -121.683586]}, "city": "gridley", "id": "060005102016", "state": "ca", "lng": "-121.683586", "name": "gridley high"}, {"street": "581 jackson st.", "phone": "5308464383", "lat": "39.36785", "county": "butte", "zip": "95948", "website": "www.gusd.org", "source": "schools", "location": {"__class__": "tuple", "__value__": [39.36785, -121.683959]}, "city": "gridley", "id": "060005102015", "state": "ca", "lng": "-121.683959", "name": "esperanza high (continuation)"}]}, {"__class__": "tuple", "__value__": [{"street": "7106 johnson dr", "phone": "9252250124", "lat": "37.698675", "county": "alameda", "zip": "94588", "website": "loveandcarepreschool.com/", "source": "places", "location": {"__class__": "tuple", "__value__": [37.698675, -121.919942]}, "city": "pleasanton", "id": "chijsanv6wvsj4arbagfnog12v8", "state": "ca", "lng": "-121.919942", "name": "love & care christian preschool"}, {"street": "4375 foothill rd", "phone": null, "lat": "37.6718382", "county": "alameda", "zip": "94588", "website": null, "source": "places", "location": {"__class__": "tuple", "__value__": [37.6718382, -121.9178282]}, "city": "pleasanton", "id": "chijg-sm9mprj4arphjltoksyk0", "state": "ca", "lng": "-121.9178282", "name": "p10"}]}, {"__class__": "tuple", "__value__": [{"street": "2079 saturn ave", "phone": "3238269616", "lat": "33.97695", "county": "los angeles", "zip": "90255", "website": "www.aspirepublicschools.org", "source": "schools", "location": {"__class__": "tuple", "__value__": [33.97695, -118.233598]}, "city": "huntington park", "id": "062271013135", "state": "ca", "lng": "-118.233598", "name": "aspire centennial college preparatory academy"}, {"street": "6720 s. alameda st.", "phone": "3235835421", "lat": "33.97806", "county": "los angeles", "zip": "90255", "website": "www.aspirepublicschools.org", "source": "schools", "location": {"__class__": "tuple", "__value__": [33.97806, -118.234301]}, "city": "huntington park", "id": "062271012447", "state": "ca", "lng": "-118.234301", "name": "aspire titan academy"}]}, {"__class__": "tuple", "__value__": [{"street": "602 orchard st.", "phone": "8054743000", "lat": "35.11613", "county": "san luis obispo", "zip": "93420", "website": null, "source": "schools", "location": {"__class__": "tuple", "__value__": [35.11613, -120.577112]}, "city": "arroyo grande", "id": "060014111427", "state": "ca", "lng": "-120.577112", "name": "santa lucia rop"}, {"street": "602 orchard st", "phone": "8054743000", "lat": "35.1162282", "county": "san luis obispo", "zip": "93420", "website": "www.luciamarschools.org/", "source": "places", "location": {"__class__": "tuple", "__value__": [35.1162282, -120.5768659]}, "city": "arroyo grande", "id": "chijzbsjkofe7iarpxedcg_pssc", "state": "ca", "lng": "-120.5768659", "name": "lucia mar unified district"}]}, {"__class__": "tuple", "__value__": [{"street": "5735 musick ave.", "phone": "5108184000", "lat": "37.543653", "county": "alameda", "zip": "94560", "website": "www.newarkunified.org", "source": "schools", "location": {"__class__": "tuple", "__value__": [37.543653, -122.031093]}, "city": "newark", "id": "062706004087", "state": "ca", "lng": "-122.031093", "name": "e. l. musick elementary"}, {"street": "6580 mirabeau dr", "phone": "5108183900", "lat": "37.5428734", "county": "alameda", "zip": "94560", "website": "https://snow-nusd-ca.schoolloop.com/", "source": "places", "location": {"__class__": "tuple", "__value__": [37.5428734, -122.0490306]}, "city": "newark", "id": "chijk2bpmli-j4arbin3gf4igdi", "state": "ca", "lng": "-122.0490306", "name": "h. a. snow elementary"}]}, {"__class__": "tuple", "__value__": [{"street": "817 colus ave.", "phone": "5304582156", "lat": "39.199922", "county": "colusa", "zip": "95932", "website": null, "source": "schools", "location": {"__class__": "tuple", "__value__": [39.199922, -122.018831]}, "city": "colusa", "id": "060957008128", "state": "ca", "lng": "-122.018831", "name": "colusa alternative high (continuation)"}, {"street": "745 10th st.", "phone": "5304582156", "lat": "39.200317", "county": "colusa", "zip": "95932", "website": null, "source": "schools", "location": {"__class__": "tuple", "__value__": [39.200317, -122.018655]}, "city": "colusa", "id": "060957004434", "state": "ca", "lng": "-122.018655", "name": "colusa alternative home"}]}, {"__class__": "tuple", "__value__": [{"street": "101 dean way", "phone": "9169834469", "lat": "38.6779825", "county": "sacramento", "zip": "95630", "website": "www.fcusd.org/tje", "source": "places", "location": {"__class__": "tuple", "__value__": [38.6779825, -121.1635219]}, "city": "folsom", "id": "chijdtevjatkmoar1lvxnjhqs2g", "state": "ca", "lng": "-121.1635219", "name": "theodore judah elementary"}, {"street": null, "phone": "9163532767", "lat": "38.6779591", "county": "sacramento", "zip": "95630", "website": null, "source": "places", "location": {"__class__": "tuple", "__value__": [38.6779591, -121.1760583]}, "city": "folsom", "id": "chij_u8ozqvmmoarboogzrdzwis", "state": "ca", "lng": "-121.1760583", "name": "lang"}]}, {"__class__": "tuple", "__value__": [{"street": "1800 gravenstein hwy n", "phone": "7078237300", "lat": "38.422301", "county": "sonoma", "zip": "95472", "website": "www.tlc4kids.org/", "source": "places", "location": {"__class__": "tuple", "__value__": [38.422301, -122.847211]}, "city": "sebastopol", "id": "chij0djvxvs6hiaresps3xusz2m", "state": "ca", "lng": "-122.847211", "name": "journey high"}, {"street": "1800 gravenstein hwy n", "phone": "7078237300", "lat": "38.4220412", "county": "sonoma", "zip": "95472", "website": "www.tlc4kids.org/", "source": "places", "location": {"__class__": "tuple", "__value__": [38.4220412, -122.8463531]}, "city": "sebastopol", "id": "chijn2xmv1s6hiar6taba1jnqus", "state": "ca", "lng": "-122.8463531", "name": "tlc child & family services"}]}, {"__class__": "tuple", "__value__": [{"street": "3200 w adams blvd", "phone": "3238211393", "lat": "34.0319587", "county": "los angeles", "zip": "90018", "website": "www.mscollegeprep.org/", "source": "places", "location": {"__class__": "tuple", "__value__": [34.0319587, -118.3189727]}, "city": "los angeles", "id": "chijyu0eu2u4woaryxslmptwxxa", "state": "ca", "lng": "-118.3189727", "name": "math and science college prep hs"}, {"street": "3200 w adams blvd", "phone": "3238211393", "lat": "34.0319587", "county": "los angeles", "zip": "90018", "website": "stem-prep.org/contact", "source": "places", "location": {"__class__": "tuple", "__value__": [34.0319587, -118.3189727]}, "city": "los angeles", "id": "chijyu0eu2u4woarebogv8jaj8o", "state": "ca", "lng": "-118.3189727", "name": "stem preparatorys"}]}, {"__class__": "tuple", "__value__": [{"street": "900 e gilbert st", "phone": "9093870550", "lat": "34.1271863", "county": "san bernardino", "zip": "92415", "website": null, "source": "places", "location": {"__class__": "tuple", "__value__": [34.1271863, -117.2673099]}, "city": "san bernardino", "id": "chijx3ieagjtw4arfm5i8yao6ye", "state": "ca", "lng": "-117.2673099", "name": "teddy bear tymes child care center"}, {"street": "900 e gilbert st", "phone": "9093877490", "lat": "34.1271527", "county": "san bernardino", "zip": "92415", "website": "www.cde.ca.gov/re/sd/details.asp?cds=36103636037451&public=y", "source": "places", "location": {"__class__": "tuple", "__value__": [34.1271527, -117.2677642]}, "city": "san bernardino", "id": "chijx3ieagjtw4ar379p_fsb_40", "state": "ca", "lng": "-117.2677642", "name": "burton thrall"}]}, {"__class__": "tuple", "__value__": [{"street": "1 raider ln.", "phone": "9163757800", "lat": "38.546556", "county": "yolo", "zip": "95691", "website": null, "source": "schools", "location": {"__class__": "tuple", "__value__": [38.546556, -121.542813]}, "city": "west sacramento", "id": "064158006857", "state": "ca", "lng": "-121.542813", "name": "river city high"}, {"street": "muscovy rd", "phone": "9163757800", "lat": "38.547062", "county": "yolo", "zip": "95691", "website": "rivercity.wusd.k12.ca.us/", "source": "places", "location": {"__class__": "tuple", "__value__": [38.547062, -121.5385294]}, "city": "west sacramento", "id": "chijp5kzhdjtmoareclefjw0pka", "state": "ca", "lng": "-121.5385294", "name": "river city high football field"}]}, {"__class__": "tuple", "__value__": [{"street": "1151 san juan st", "phone": "7147307356", "lat": "33.73998", "county": "orange", "zip": "92780", "website": "www.tustin.k12.ca.us/domain/40", "source": "places", "location": {"__class__": "tuple", "__value__": [33.73998, -117.816093]}, "city": "tustin", "id": "chijwzycsenb3iaraq4hjxao-uk", "state": "ca", "lng": "-117.816093", "name": "hillview h.s., sycamore high, and tustin adult"}, {"street": "1151 san juan st", "phone": "7147307395", "lat": "33.73998", "county": "orange", "zip": "92780", "website": "www.tustin.k12.ca.us/domain/41", "source": "places", "location": {"__class__": "tuple", "__value__": [33.73998, -117.816093]}, "city": "tustin", "id": "chijjr-projb3iarrkcf0jub4he", "state": "ca", "lng": "-117.816093", "name": "sycamore high (independent study)"}]}, {"__class__": "tuple", "__value__": [{"street": "4200 concord blvd.", "phone": "9256872030", "lat": "37.97802", "county": "contra costa", "zip": "94521", "website": "www.mdusd.org", "source": "schools", "location": {"__class__": "tuple", "__value__": [37.97802, -121.988937]}, "city": "concord", "id": "062637003942", "state": "ca", "lng": "-121.988937", "name": "concord high"}, {"street": "4200 concord blvd.", "phone": "9256870991", "lat": "37.977791", "county": "contra costa", "zip": "94521", "website": null, "source": "schools", "location": {"__class__": "tuple", "__value__": [37.977791, -121.988325]}, "city": "concord", "id": "062637000185", "state": "ca", "lng": "-121.988325", "name": "summit high (continuation)"}]}, {"__class__": "tuple", "__value__": [{"street": "6269 twin lake dr", "phone": "6194639271", "lat": "32.7949068", "county": "san diego", "zip": "92119", "website": "www.bwpta.org/web/contact-us", "source": "places", "location": {"__class__": "tuple", "__value__": [32.7949068, -117.032005]}, "city": "san diego", "id": "chijsr20s61x2yarhmqmurl_boc", "state": "ca", "lng": "-117.032005", "name": "benchley-weinberger pta"}, {"street": "6269 twin lake dr.", "phone": "6194639271", "lat": "32.79441", "county": "san diego", "zip": "92119", "website": "www.sandi.net/bw", "source": "schools", "location": {"__class__": "tuple", "__value__": [32.79441, -117.031304]}, "city": "san diego", "id": "063432005570", "state": "ca", "lng": "-117.031304", "name": "benchley/weinberger elementary"}]}, {"__class__": "tuple", "__value__": [{"street": "625 maine ave", "phone": "5625908481", "lat": "33.774646", "county": "los angeles", "zip": "90802", "website": "edi-lbusd.ca.schoolloop.com/", "source": "places", "location": {"__class__": "tuple", "__value__": [33.774646, -118.2008502]}, "city": "long beach", "id": "chijaqeu0usx3yarez6bphz9zsi", "state": "ca", "lng": "-118.2008502", "name": "edison elementary"}, {"street": "625 maine ave", "phone": "5624376114", "lat": "33.7746198", "county": "los angeles", "zip": "90802", "website": null, "source": "places", "location": {"__class__": "tuple", "__value__": [33.7746198, -118.2008893]}, "city": "long beach", "id": "chij65kp2ksx3yark0pyd0iesow", "state": "ca", "lng": "-118.2008893", "name": "edison child day care center"}]}], "match": [{"__class__": "tuple", "__value__": [{"street": null, "phone": "2093856676", "lat": "37.2938827", "county": "merced", "zip": "95340", "website": "www.mcsd.k12.ca.us/sheehy", "source": "places", "location": {"__class__": "tuple", "__value__": [37.2938827, -120.5014377]}, "city": "merced", "id": "chijw49mkfnckyargwmigrt4kus", "state": "ca", "lng": "-120.5014377", "name": "margaret sheehy elementary"}, {"street": "1240 w. sixth st.", "phone": "2093856676", "lat": "37.293787", "county": "merced", "zip": "95340", "website": null, "source": "schools", "location": {"__class__": "tuple", "__value__": [37.293787, -120.501581]}, "city": "merced", "id": "062460003694", "state": "ca", "lng": "-120.501581", "name": "margaret sheehy elementary"}]}, {"__class__": "tuple", "__value__": [{"street": "2550 25th ave.", "phone": "4156158460", "lat": "37.739654", "county": "san francisco", "zip": "94116", "website": null, "source": "schools", "location": {"__class__": "tuple", "__value__": [37.739654, -122.481699]}, "city": "san francisco", "id": "063441011772", "state": "ca", "lng": "-122.481699", "name": "feinstein (dianne) elementary"}, {"street": "2550 25th ave", "phone": "4156158460", "lat": "37.7396634", "county": "san francisco", "zip": "94116", "website": "dfes-sfusd-ca.schoolloop.com/", "source": "places", "location": {"__class__": "tuple", "__value__": [37.7396634, -122.4817726]}, "city": "san francisco", "id": "chij8-kga5p9j4ars6uszjbxiw8", "state": "ca", "lng": "-122.4817726", "name": "dianne feinstein elementary"}]}, {"__class__": "tuple", "__value__": [{"street": "1750 w. kavanagh ave.", "phone": "2098303315", "lat": "37.75736", "county": "san joaquin", "zip": "95376", "website": "www.tracy.k12.ca.us/sites/jes", "source": "schools", "location": {"__class__": "tuple", "__value__": [37.75736, -121.4474]}, "city": "tracy", "id": "060004707397", "state": "ca", "lng": "-121.4474", "name": "melville s. jacobson elementary"}, {"street": "1750 w kavanagh ave", "phone": "2098303315", "lat": "37.7566829", "county": "san joaquin", "zip": "95376", "website": "https://www.tracy.k12.ca.us/sites/jes/pages/default.aspx", "source": "places", "location": {"__class__": "tuple", "__value__": [37.7566829, -121.4468821]}, "city": "tracy", "id": "chijfd_w5aoikiarabrvjbcvjdc", "state": "ca", "lng": "-121.4468821", "name": "jacobson elementary"}]}, {"__class__": "tuple", "__value__": [{"street": "735 halidon way", "phone": "9169845151", "lat": "38.65012", "county": "sacramento", "zip": "95630", "website": "www.fcusd.org", "source": "schools", "location": {"__class__": "tuple", "__value__": [38.65012, -121.132189]}, "city": "folsom", "id": "061389007611", "state": "ca", "lng": "-121.132189", "name": "gold ridge elementary"}, {"street": "735 halidon way", "phone": "9162949140", "lat": "38.65006", "county": "sacramento", "zip": "95630", "website": "www.fcusd.org/gre", "source": "places", "location": {"__class__": "tuple", "__value__": [38.65006, -121.132167]}, "city": "folsom", "id": "chijer9ogqzlmoarp9oo3idlekm", "state": "ca", "lng": "-121.132167", "name": "gold ridge elementary"}]}, {"__class__": "tuple", "__value__": [{"street": "1100 mono st", "phone": "5594573010", "lat": "36.7244643", "county": "fresno", "zip": "93706", "website": "www.cde.ca.gov/re/sd/details.asp?cds=10621666006365&public=y", "source": "places", "location": {"__class__": "tuple", "__value__": [36.7244643, -119.7955447]}, "city": "fresno", "id": "chijh7fasorgliari5ufbqd2-ww", "state": "ca", "lng": "-119.7955447", "name": "lincoln elementary"}, {"street": "1100 mono st", "phone": "5594573012", "lat": "36.7244643", "county": "fresno", "zip": "93706", "website": null, "source": "places", "location": {"__class__": "tuple", "__value__": [36.7244643, -119.7955447]}, "city": "fresno", "id": "chijrqyltjtgliarzs48i7pflzc", "state": "ca", "lng": "-119.7955447", "name": "lincoln preschool"}]}, {"__class__": "tuple", "__value__": [{"street": "360 nevada st", "phone": "5308895949", "lat": "38.906512", "county": "placer", "zip": "95603", "website": "www.cteworks.com/", "source": "places", "location": {"__class__": "tuple", "__value__": [38.906512, -121.081089]}, "city": "auburn", "id": "chij7fwrzm0am4arpq9wizzrn0u", "state": "ca", "lng": "-121.081089", "name": "placer county office of education cte-career technical education"}, {"street": "360 nevada st", "phone": "5308895968", "lat": "38.9066328", "county": "placer", "zip": "95603", "website": "www.49errop.com/", "source": "places", "location": {"__class__": "tuple", "__value__": [38.9066328, -121.0814155]}, "city": "auburn", "id": "chij7fwrzm0am4ar6oe4zba05_0", "state": "ca", "lng": "-121.0814155", "name": "49er rop preschool"}]}, {"__class__": "tuple", "__value__": [{"street": "5000 lyng dr", "phone": "4082277332", "lat": "37.2715899", "county": "santa clara", "zip": "95111", "website": "www.ogsd.net/?page_id=936", "source": "places", "location": {"__class__": "tuple", "__value__": [37.2715899, -121.8056355]}, "city": "san jose", "id": "chijt88_m_4tjoarsctji1msg8g", "state": "ca", "lng": "-121.8056355", "name": "samuel e. stipe elementary"}, {"street": "5000 lyng dr.", "phone": "4082277332", "lat": "37.271598", "county": "santa clara", "zip": "95111", "website": null, "source": "schools", "location": {"__class__": "tuple", "__value__": [37.271598, -121.80572]}, "city": "san jose", "id": "062781004221", "state": "ca", "lng": "-121.80572", "name": "stipe (samuel) elementary"}]}, {"__class__": "tuple", "__value__": [{"street": "6500 s hooper ave", "phone": "3238262500", "lat": "33.9803493", "county": "los angeles", "zip": "90001", "website": "taems-lausd-ca.schoolloop.com/", "source": "places", "location": {"__class__": "tuple", "__value__": [33.9803493, -118.2509296]}, "city": "los angeles", "id": "chijb3jrywdjwoarjqvdrktpznc", "state": "ca", "lng": "-118.2509296", "name": "edison middle"}, {"street": "6500 hooper ave.", "phone": "3238262500", "lat": "33.980626", "county": "los angeles", "zip": "90001", "website": "www.edisonms.org", "source": "schools", "location": {"__class__": "tuple", "__value__": [33.980626, -118.251794]}, "city": "los angeles", "id": "062271002975", "state": "ca", "lng": "-118.251794", "name": "thomas a. edison middle"}]}, {"__class__": "tuple", "__value__": [{"street": "19325 bollinger rd.", "phone": "4082526290", "lat": "37.311126", "county": "santa clara", "zip": "95014", "website": null, "source": "schools", "location": {"__class__": "tuple", "__value__": [37.311126, -122.010994]}, "city": "cupertino", "id": "061029001136", "state": "ca", "lng": "-122.010994", "name": "warren e. hyde middle"}, {"street": "19325 bollinger rd", "phone": "4082526290", "lat": "37.3109056", "county": "santa clara", "zip": "95014", "website": "www.cusdk8.org/hyde", "source": "places", "location": {"__class__": "tuple", "__value__": [37.3109056, -122.011431]}, "city": "cupertino", "id": "chijlesfu221j4arac64c1zjpog", "state": "ca", "lng": "-122.011431", "name": "hyde middle"}]}, {"__class__": "tuple", "__value__": [{"street": "1055 n state st", "phone": "7074683835", "lat": "39.1632737", "county": "mendocino", "zip": "95482", "website": "ppnheadstart.com/", "source": "places", "location": {"__class__": "tuple", "__value__": [39.1632737, -123.2084684]}, "city": "ukiah", "id": "chij0wl80n5kgyarnyhjp_hnldu", "state": "ca", "lng": "-123.2084684", "name": "pinoleville head start"}, {"street": "500 pinoleville rd", "phone": "7074683835", "lat": "39.1796399", "county": "mendocino", "zip": "95482", "website": "ppnheadstart.com/", "source": "places", "location": {"__class__": "tuple", "__value__": [39.1796399, -123.2196454]}, "city": "ukiah", "id": "chijp32rctr6gyarwbuzrenwtwi", "state": "ca", "lng": "-123.2196454", "name": "pinoleville head start"}]}, {"__class__": "tuple", "__value__": [{"street": "351 marina rd", "phone": "9254583261", "lat": "38.035073", "county": "contra costa", "zip": "94565", "website": null, "source": "places", "location": {"__class__": "tuple", "__value__": [38.035073, -121.9704172]}, "city": "pittsburg", "id": "chijcxam1wxdhyar8pzhgwcgfqw", "state": "ca", "lng": "-121.9704172", "name": "shore acres elementary"}, {"street": "351 marina rd.", "phone": "9254583261", "lat": "38.035662", "county": "contra costa", "zip": "94565", "website": "www.mdusd.org", "source": "schools", "location": {"__class__": "tuple", "__value__": [38.035662, -121.970063]}, "city": "bay point", "id": "062637003972", "state": "ca", "lng": "-121.970063", "name": "shore acres elementary"}]}, {"__class__": "tuple", "__value__": [{"street": "2515 e south st", "phone": "6263873607", "lat": "33.833", "county": "orange", "zip": "92806", "website": "www.kindercare.com/our-centers/anaheim/ca/300218", "source": "places", "location": {"__class__": "tuple", "__value__": [33.833, -117.879812]}, "city": "anaheim", "id": "chije4lfv1xw3iaran-ajecgm4u", "state": "ca", "lng": "-117.879812", "name": "south street kindercare"}, {"street": "2515 e south st", "phone": "7147745141", "lat": "33.832947", "county": "orange", "zip": "92806", "website": "www.kindercare.com/our-centers/anaheim/ca/300218/?utm_campaign=kc_local&utm_source=l3m_local&utm_medium=a&utm_content=300218&_google", "source": "places", "location": {"__class__": "tuple", "__value__": [33.832947, -117.879836]}, "city": "anaheim", "id": "chijrydbv1xw3iarwky0c7vw988", "state": "ca", "lng": "-117.879836", "name": "south street kindercare"}]}, {"__class__": "tuple", "__value__": [{"street": "353 b st.", "phone": "5107233805", "lat": "37.66798", "county": "alameda", "zip": "94541", "website": null, "source": "schools", "location": {"__class__": "tuple", "__value__": [37.66798, -122.0944]}, "city": "hayward", "id": "061674002106", "state": "ca", "lng": "-122.0944", "name": "burbank elementary"}, {"street": "222 burbank st", "phone": "5102938568", "lat": "37.6665896", "county": "alameda", "zip": "94541", "website": "https://bur-haywardusd-ca.schoolloop.com/", "source": "places", "location": {"__class__": "tuple", "__value__": [37.6665896, -122.0959271]}, "city": "hayward", "id": "chijax7emmwrj4ar4-ok0d-fkvu", "state": "ca", "lng": "-122.0959271", "name": "burbank elementary"}]}, {"__class__": "tuple", "__value__": [{"street": "83501 dillon ave", "phone": "7607753575", "lat": "33.7249548", "county": "riverside", "zip": "92201", "website": "cms.dsusd.k12.ca.us/education/school/school.php?sectionid=1015", "source": "places", "location": {"__class__": "tuple", "__value__": [33.7249548, -116.2064662]}, "city": "indio", "id": "chij9ujmcpf32oarqdjbvanp2pg", "state": "ca", "lng": "-116.2064662", "name": "amistad continuation high"}, {"street": "83-501 dillon ave.", "phone": "7607753570", "lat": "33.725796", "county": "riverside", "zip": "92201", "website": "www.dsusd.us", "source": "schools", "location": {"__class__": "tuple", "__value__": [33.725796, -116.209189]}, "city": "indio", "id": "061111007694", "state": "ca", "lng": "-116.209189", "name": "amistad high (continuation)"}]}, {"__class__": "tuple", "__value__": [{"street": "8626 wilbur ave", "phone": "8005952960", "lat": "34.2272238", "county": "los angeles", "zip": "91324", "website": "5dollartrafficschoolampm.com/", "source": "places", "location": {"__class__": "tuple", "__value__": [34.2272238, -118.5441996]}, "city": "los angeles", "id": "chijf2ucbbcbwoartlk91wifxss", "state": "ca", "lng": "-118.5441996", "name": "5 dollar traffic am pm"}, {"street": "8626 wilbur ave", "phone": "8005189079", "lat": "34.2272237", "county": "los angeles", "zip": "91324", "website": "www.5dollartrafficschoolonline.com/", "source": "places", "location": {"__class__": "tuple", "__value__": [34.2272237, -118.5441996]}, "city": "los angeles", "id": "chijewucbbcbwoaroreum1lb-m8", "state": "ca", "lng": "-118.5441996", "name": "5 dollar traffic online"}]}, {"__class__": "tuple", "__value__": [{"street": "1221 emerald ave", "phone": "6195883097", "lat": "32.7786776", "county": "san diego", "zip": "92020", "website": "www.cajonvalley.net/emerald", "source": "places", "location": {"__class__": "tuple", "__value__": [32.7786776, -116.9685961]}, "city": "el cajon", "id": "chij569dlopz2yar2dyu--6tk2i", "state": "ca", "lng": "-116.9685961", "name": "emerald stem magnet middle"}, {"street": "1221 s. emerald ave.", "phone": "6195883097", "lat": "32.778361", "county": "san diego", "zip": "92020", "website": null, "source": "schools", "location": {"__class__": "tuple", "__value__": [32.778361, -116.967139]}, "city": "el cajon", "id": "060681000612", "state": "ca", "lng": "-116.967139", "name": "emerald middle"}]}, {"__class__": "tuple", "__value__": [{"street": "855 e 5th st", "phone": "5624325946", "lat": "33.7732278", "county": "los angeles", "zip": "90802", "website": "www.stanthonyelemlb.org/", "source": "places", "location": {"__class__": "tuple", "__value__": [33.7732278, -118.1810812]}, "city": "long beach", "id": "chijf1vzdbux3yarfybih8ojt-w", "state": "ca", "lng": "-118.1810812", "name": "st. anthony parish"}, {"street": "855 e 5th st", "phone": "5624325946", "lat": "33.7732389", "county": "los angeles", "zip": "90802", "website": "www.stanthonyelemlb.org/", "source": "places", "location": {"__class__": "tuple", "__value__": [33.7732389, -118.1811]}, "city": "long beach", "id": "chij2yf5nxux3yarmijkgwcmr8k", "state": "ca", "lng": "-118.1811", "name": "st. anthony elementary"}]}, {"__class__": "tuple", "__value__": [{"street": null, "phone": "7077683610", "lat": "40.5476338", "county": "humboldt", "zip": "95547", "website": null, "source": "places", "location": {"__class__": "tuple", "__value__": [40.5476338, -124.097272]}, "city": "hydesville", "id": "chijg4vjsa0n1fqrlorwcwz5hz8", "state": "ca", "lng": "-124.097272", "name": "hydesville elem sch district"}, {"street": "3050 johnson rd.", "phone": "7077683610", "lat": "40.549294", "county": "humboldt", "zip": "95547", "website": null, "source": "schools", "location": {"__class__": "tuple", "__value__": [40.549294, -124.093109]}, "city": "hydesville", "id": "061812002237", "state": "ca", "lng": "-124.093109", "name": "hydesville elementary"}]}, {"__class__": "tuple", "__value__": [{"street": null, "phone": "6268218346", "lat": "34.1398449", "county": "los angeles", "zip": "91007", "website": "www.hr.ausd.net/", "source": "places", "location": {"__class__": "tuple", "__value__": [34.1398449, -118.0670909]}, "city": "arcadia", "id": "chijj9yplhbbwoar5brtpzoqdug", "state": "ca", "lng": "-118.0670909", "name": "hugo reid primary"}, {"street": "1000 hugo reid dr", "phone": "6268218346", "lat": "34.1378645", "county": "los angeles", "zip": "91007", "website": "www.hr.ausd.net/", "source": "places", "location": {"__class__": "tuple", "__value__": [34.1378645, -118.0635631]}, "city": "arcadia", "id": "chijz_yzfz7bwoark-3fcvvgrbk", "state": "ca", "lng": "-118.0635631", "name": "hugo reid elementary"}]}, {"__class__": "tuple", "__value__": [{"street": "3040 hilltop mall rd", "phone": "5106461696", "lat": "37.9773256", "county": "contra costa", "zip": "94806", "website": "www.aspirepublicschools.org/", "source": "places", "location": {"__class__": "tuple", "__value__": [37.9773256, -122.3265159]}, "city": "richmond", "id": "chij7qiqxbt3hyar4wzmfue9er4", "state": "ca", "lng": "-122.3265159", "name": "aspire richmond california college preparatory academy"}, {"street": "3040 hilltop mall rd", "phone": "5106461696", "lat": "37.9773752", "county": "contra costa", "zip": "94806", "website": "aspirepublicschools.org/schools/regions/california-schools/aspire-richmond-california-college-preparatory", "source": "places", "location": {"__class__": "tuple", "__value__": [37.9773752, -122.326579]}, "city": "san pablo", "id": "chijk_crxbt3hyart6jfvz7idkw", "state": "ca", "lng": "-122.326579", "name": "aspire hilltop campus"}]}, {"__class__": "tuple", "__value__": [{"street": "455 los arboles st", "phone": "4083635675", "lat": "37.286599", "county": "santa clara", "zip": "95111", "website": null, "source": "places", "location": {"__class__": "tuple", "__value__": [37.286599, -121.8317074]}, "city": "san jose", "id": "chijtyrvmgkyjoarqr94x_mahgq", "state": "ca", "lng": "-121.8317074", "name": "los arboles elementary"}, {"street": "455 los arboles st.", "phone": "4083635675", "lat": "37.286505", "county": "santa clara", "zip": "95111", "website": null, "source": "schools", "location": {"__class__": "tuple", "__value__": [37.286505, -121.831621]}, "city": "san jose", "id": "061437001648", "state": "ca", "lng": "-121.831621", "name": "los arboles literacy and technology academy"}]}, {"__class__": "tuple", "__value__": [{"street": "500 walnut ave", "phone": "5107943800", "lat": "37.5618224", "county": "alameda", "zip": "94536", "website": "www.csb-cde.ca.gov/", "source": "places", "location": {"__class__": "tuple", "__value__": [37.5618224, -121.9654738]}, "city": "fremont", "id": "chijd4-kjptaj4arcafhb7_4aai", "state": "ca", "lng": "-121.9654738", "name": "california-the blind"}, {"street": "500 walnut ave.", "phone": "5107943800", "lat": "37.562648", "county": "alameda", "zip": "94536", "website": null, "source": "schools", "location": {"__class__": "tuple", "__value__": [37.562648, -121.96336]}, "city": "fremont", "id": "060000210346", "state": "ca", "lng": "-121.96336", "name": "california school for the blind"}]}, {"__class__": "tuple", "__value__": [{"street": "595 s. eucalyptus ave.", "phone": "9094217500", "lat": "34.11032", "county": "san bernardino", "zip": "92376", "website": "http://rhs-rialto-ca.schoolloop.com/", "source": "schools", "location": {"__class__": "tuple", "__value__": [34.11032, -117.356991]}, "city": "rialto", "id": "063237001126", "state": "ca", "lng": "-117.356991", "name": "rialto high"}, {"street": "595 s eucalyptus ave", "phone": "9094217500", "lat": "34.0894025", "county": "san bernardino", "zip": "92376", "website": "https://rhs-rialto-ca.schoolloop.com/", "source": "places", "location": {"__class__": "tuple", "__value__": [34.0894025, -117.3548926]}, "city": "rialto", "id": "chijp-16fazsw4ar0faooofd4zg", "state": "ca", "lng": "-117.3548926", "name": "rialto high"}]}, {"__class__": "tuple", "__value__": [{"street": "104 anchorage st", "phone": "3108212039", "lat": "33.9793603", "county": "los angeles", "zip": "90292", "website": "westsideglobalawareness.net/", "source": "places", "location": {"__class__": "tuple", "__value__": [33.9793603, -118.4644087]}, "city": "marina del rey", "id": "chijv8qowkk6woarzyla-qkmimg", "state": "ca", "lng": "-118.4644087", "name": "westside alternative"}, {"street": "104 anchorage st.", "phone": "3108212039", "lat": "33.979591", "county": "los angeles", "zip": "90292", "website": "http://westsideglobalawareness.org", "source": "schools", "location": {"__class__": "tuple", "__value__": [33.979591, -118.464836]}, "city": "marina del rey", "id": "062271002822", "state": "ca", "lng": "-118.464836", "name": "westside global awareness magnet"}]}, {"__class__": "tuple", "__value__": [{"street": "7544 emerson pl", "phone": "6263073333", "lat": "34.0656032", "county": "los angeles", "zip": "91770", "website": "www.garvey.k12.ca.us/", "source": "places", "location": {"__class__": "tuple", "__value__": [34.0656032, -118.1046527]}, "city": "rosemead", "id": "chijcbj_sanawoaret00zjofcd8", "state": "ca", "lng": "-118.1046527", "name": "emerson elementary"}, {"street": "7544 e. emerson pl.", "phone": "6263073333", "lat": "34.06582", "county": "los angeles", "zip": "91770", "website": null, "source": "schools", "location": {"__class__": "tuple", "__value__": [34.06582, -118.104973]}, "city": "rosemead", "id": "061494001900", "state": "ca", "lng": "-118.104973", "name": "emerson (ralph waldo) elementary"}]}, {"__class__": "tuple", "__value__": [{"street": "6020 s figueroa st", "phone": "3237591138", "lat": "33.984393", "county": "los angeles", "zip": "90003", "website": "https://61ststreetes-lausd-ca.schoolloop.com/", "source": "places", "location": {"__class__": "tuple", "__value__": [33.984393, -118.281758]}, "city": "los angeles", "id": "chij61mnkzfiwoarctpouau6jfc", "state": "ca", "lng": "-118.281758", "name": "61st street elementary"}, {"street": "6020 s. figueroa st.", "phone": "3237591138", "lat": "33.984605", "county": "los angeles", "zip": "90003", "website": null, "source": "schools", "location": {"__class__": "tuple", "__value__": [33.984605, -118.281165]}, "city": "los angeles", "id": "062271003358", "state": "ca", "lng": "-118.281165", "name": "sixty-first street elementary"}]}, {"__class__": "tuple", "__value__": [{"street": "2120 broadway", "phone": "4159220300", "lat": "37.7948921", "county": "san francisco", "zip": "94115", "website": "www.hamlin.org/", "source": "places", "location": {"__class__": "tuple", "__value__": [37.7948921, -122.4324259]}, "city": "san francisco", "id": "chijuveu4ssahyarfqvrxcvjr7s", "state": "ca", "lng": "-122.4324259", "name": "the hamlin"}, {"street": "2129 vallejo st", "phone": "4159220600", "lat": "37.7953568", "county": "san francisco", "zip": "94123", "website": "www.hamlin.org/", "source": "places", "location": {"__class__": "tuple", "__value__": [37.7953568, -122.4326222]}, "city": "san francisco", "id": "chij2uyv38sahyarf7yb5yuc--m", "state": "ca", "lng": "-122.4326222", "name": "the hamlin"}]}, {"__class__": "tuple", "__value__": [{"street": "1170 yorkshire dr.", "phone": "4082535250", "lat": "37.303457", "county": "santa clara", "zip": "95014", "website": null, "source": "schools", "location": {"__class__": "tuple", "__value__": [37.303457, -122.046973]}, "city": "cupertino", "id": "061029001150", "state": "ca", "lng": "-122.046973", "name": "william regnart elementary"}, {"street": "1170 yorkshire dr", "phone": "4082535250", "lat": "37.3035479", "county": "santa clara", "zip": "95014", "website": "www.edline.net/pages/regnart_elementary_school", "source": "places", "location": {"__class__": "tuple", "__value__": [37.3035479, -122.0478044]}, "city": "cupertino", "id": "chijd8ne_fq0j4arv4brlar1afy", "state": "ca", "lng": "-122.0478044", "name": "regnart elementary"}]}, {"__class__": "tuple", "__value__": [{"street": "13350 sierra way", "phone": "7603762249", "lat": "35.7561801", "county": "kern", "zip": "93238", "website": "www.kernvilleusd.org/", "source": "places", "location": {"__class__": "tuple", "__value__": [35.7561801, -118.4179243]}, "city": "kernville", "id": "chij7utto8fmwyarc6p9enzgpyk", "state": "ca", "lng": "-118.4179243", "name": "kernville elementary"}, {"street": "13550 sierra way", "phone": "7603762249", "lat": "35.73819", "county": "kern", "zip": "93238", "website": "www.kernvilleusd.org/kes/", "source": "schools", "location": {"__class__": "tuple", "__value__": [35.73819, -118.4145]}, "city": "kernville", "id": "061959002357", "state": "ca", "lng": "-118.4145", "name": "kernville elementary"}]}, {"__class__": "tuple", "__value__": [{"street": "2050 n san fernando rd", "phone": "3232765500", "lat": "34.1024716", "county": "los angeles", "zip": "90065", "website": null, "source": "places", "location": {"__class__": "tuple", "__value__": [34.1024716, -118.238784]}, "city": "los angeles", "id": "chijwuc-bc_gwoarvhpi5o3klse", "state": "ca", "lng": "-118.238784", "name": "school of history and dramatic arts"}, {"street": "2050 san fernando rd.", "phone": "3232765500", "lat": "34.101772", "county": "los angeles", "zip": "90065", "website": "http://sohda-lausd-ca.schoolloop.com", "source": "schools", "location": {"__class__": "tuple", "__value__": [34.101772, -118.236816]}, "city": "los angeles", "id": "062271012953", "state": "ca", "lng": "-118.236816", "name": "sch of hist and dramatic arts at sonia sotomayor lrng acads"}]}, {"__class__": "tuple", "__value__": [{"street": "1 martin st", "phone": "4154675443", "lat": "37.7005106", "county": "san mateo", "zip": "94014", "website": null, "source": "places", "location": {"__class__": "tuple", "__value__": [37.7005106, -122.4134994]}, "city": "daly city", "id": "chijsytlkm1-j4arillzqd03f3y", "state": "ca", "lng": "-122.4134994", "name": "robertson intermediate"}, {"street": "1 martin st.", "phone": "4154675443", "lat": "37.700495", "county": "san mateo", "zip": "94014", "website": null, "source": "schools", "location": {"__class__": "tuple", "__value__": [37.700495, -122.41394]}, "city": "daly city", "id": "060420000380", "state": "ca", "lng": "-122.41394", "name": "garnet j. robertson intermediate"}]}, {"__class__": "tuple", "__value__": [{"street": "2710 kilgore rd", "phone": "9162949060", "lat": "38.601294", "county": "sacramento", "zip": "95670", "website": "www.fcusd.org/khs", "source": "places", "location": {"__class__": "tuple", "__value__": [38.601294, -121.276061]}, "city": "rancho cordova", "id": "chijx5usww_dmoarbhclmdd64pq", "state": "ca", "lng": "-121.276061", "name": "kinney high"}, {"street": "2710 kilgore rd.", "phone": "9166351292", "lat": "38.601276", "county": "sacramento", "zip": "95670", "website": "www.fcusd.org", "source": "schools", "location": {"__class__": "tuple", "__value__": [38.601276, -121.275472]}, "city": "rancho cordova", "id": "061389001573", "state": "ca", "lng": "-121.275472", "name": "kinney high (continuation)"}]}, {"__class__": "tuple", "__value__": [{"street": "700 loleta dr", "phone": "7077335705", "lat": "40.643478", "county": "humboldt", "zip": "95551", "website": "www.loletaschool.com/", "source": "places", "location": {"__class__": "tuple", "__value__": [40.643478, -124.218815]}, "city": "loleta", "id": "chijuwihtm0f1fqrxt9nfbw235s", "state": "ca", "lng": "-124.218815", "name": "loleta grammar"}, {"street": "700 loleta dr", "phone": "7077335705", "lat": "40.643478", "county": "humboldt", "zip": "95551", "website": "www.loletaschool.com/", "source": "places", "location": {"__class__": "tuple", "__value__": [40.643478, -124.218815]}, "city": "loleta", "id": "chij_9hnpmwf1fqrav4reqkkfa4", "state": "ca", "lng": "-124.218815", "name": "loleta elementary"}]}, {"__class__": "tuple", "__value__": [{"street": "251 s. baretta st.", "phone": "2095321587", "lat": "37.982605", "county": "tuolumne", "zip": "95370", "website": null, "source": "schools", "location": {"__class__": "tuple", "__value__": [37.982605, -120.379577]}, "city": "sonora", "id": "063726006307", "state": "ca", "lng": "-120.379577", "name": "dario cassina high"}, {"street": "barretta st", "phone": "2095321587", "lat": "37.9817985", "county": "tuolumne", "zip": "95370", "website": "sonorahs.k12.ca.us/chs/", "source": "places", "location": {"__class__": "tuple", "__value__": [37.9817985, -120.3795657]}, "city": "sonora", "id": "chijceeuwc_fkiarfpd8pmhnxau", "state": "ca", "lng": "-120.3795657", "name": "cassina high"}]}, {"__class__": "tuple", "__value__": [{"street": "4659 eastside rd", "phone": "5302466066", "lat": "40.5467264", "county": "shasta", "zip": "96001", "website": "www.strop.org/", "source": "places", "location": {"__class__": "tuple", "__value__": [40.5467264, -122.3855465]}, "city": "redding", "id": "chij3wjkg4br0lqrp4pd_z_5bwq", "state": "ca", "lng": "-122.3855465", "name": "shasta trinity regional occup"}, {"street": "4659 eastside rd", "phone": "5302463302", "lat": "40.5467264", "county": "shasta", "zip": "96001", "website": "www.strop.org/", "source": "places", "location": {"__class__": "tuple", "__value__": [40.5467264, -122.3855465]}, "city": "redding", "id": "chij3wjkg4br0lqrpip_mxrlvk8", "state": "ca", "lng": "-122.3855465", "name": "shasta-trinity rop"}]}, {"__class__": "tuple", "__value__": [{"street": "110 ellis st", "phone": "7077784750", "lat": "38.2443272", "county": "sonoma", "zip": "94952", "website": "www.cde.ca.gov/re/sd/details.asp?cds=49708546051965&public=y", "source": "places", "location": {"__class__": "tuple", "__value__": [38.2443272, -122.6332903]}, "city": "petaluma", "id": "chij11k4iaa0hyarsarkbojz_ie", "state": "ca", "lng": "-122.6332903", "name": "mckinley elementary"}, {"street": "200 douglas st", "phone": "7077784750", "lat": "38.2293261", "county": "sonoma", "zip": "94952", "website": null, "source": "places", "location": {"__class__": "tuple", "__value__": [38.2293261, -122.6441813]}, "city": "petaluma", "id": "chij7qrdaqs2hyar7gx5o3qpegw", "state": "ca", "lng": "-122.6441813", "name": "mc kinley elementary"}]}, {"__class__": "tuple", "__value__": [{"street": "737 w bardsley ave", "phone": "5596877400", "lat": "36.1964558", "county": "tulare", "zip": "93274", "website": "www.cde.ca.gov/re/sd/details.asp?cds=54722495430145&public=y", "source": "places", "location": {"__class__": "tuple", "__value__": [36.1964558, -119.3574919]}, "city": "tulare", "id": "chijpywczggrlyartdxh77jq7li", "state": "ca", "lng": "-119.3574919", "name": "valley high"}, {"street": "737 w. bardsley ave.", "phone": "5596877400", "lat": "36.19604", "county": "tulare", "zip": "93274", "website": null, "source": "schools", "location": {"__class__": "tuple", "__value__": [36.19604, -119.357271]}, "city": "tulare", "id": "063993002852", "state": "ca", "lng": "-119.357271", "name": "tulare technical preparatory high"}]}, {"__class__": "tuple", "__value__": [{"street": "2000 s otterbein ave", "phone": "6269653448", "lat": "33.9819728", "county": "los angeles", "zip": "91748", "website": "rowlandhs.org/", "source": "places", "location": {"__class__": "tuple", "__value__": [33.9819728, -117.8848705]}, "city": "rowland heights", "id": "chijkw4lteqqw4ar2nr3ymxrzm8", "state": "ca", "lng": "-117.8848705", "name": "rowland high"}, {"street": "2000 s. otterbein st.", "phone": "6269653448", "lat": "33.982743", "county": "los angeles", "zip": "91748", "website": null, "source": "schools", "location": {"__class__": "tuple", "__value__": [33.982743, -117.884534]}, "city": "rowland heights", "id": "063375005204", "state": "ca", "lng": "-117.884534", "name": "john a. rowland high"}]}, {"__class__": "tuple", "__value__": [{"street": "1000 e florinda st", "phone": "5595853850", "lat": "36.3363325", "county": "kings", "zip": "93230", "website": "www.hesd.k12.ca.us/jfk/", "source": "places", "location": {"__class__": "tuple", "__value__": [36.3363325, -119.6287563]}, "city": "hanford", "id": "chijvceo8mfdliarcg5ykgxfium", "state": "ca", "lng": "-119.6287563", "name": "john f. kennedy junior high"}, {"street": "1000 e florinda st", "phone": null, "lat": "36.3363325", "county": "kings", "zip": "93230", "website": "www.hesd.k12.ca.us/jfkjh/", "source": "places", "location": {"__class__": "tuple", "__value__": [36.3363325, -119.6287563]}, "city": "hanford", "id": "chijf2svd2jdliarydkzn95wfny", "state": "ca", "lng": "-119.6287563", "name": "jfk middle"}]}, {"__class__": "tuple", "__value__": [{"street": "2510 live oak blvd", "phone": "5307552872", "lat": "39.1641171", "county": "sutter", "zip": "95991", "website": "www.twinriverscharterschool.org/", "source": "places", "location": {"__class__": "tuple", "__value__": [39.1641171, -121.6237096]}, "city": "yuba city", "id": "chijowadm0xtm4arnpxrdvu49i8", "state": "ca", "lng": "-121.6237096", "name": "twin rivers charter"}, {"street": "840 cooper ave.", "phone": "5307552872", "lat": "39.138278", "county": "sutter", "zip": "95991", "website": "www.twinriverscharterschool.org", "source": "schools", "location": {"__class__": "tuple", "__value__": [39.138278, -121.6246]}, "city": "yuba city", "id": "064347011519", "state": "ca", "lng": "-121.6246", "name": "twin rivers charter"}]}, {"__class__": "tuple", "__value__": [{"street": "2298 merrill center dr.", "phone": "7603530140", "lat": "32.77206", "county": "imperial", "zip": "92243", "website": "www.ballingtonacademy.org", "source": "schools", "location": {"__class__": "tuple", "__value__": [32.77206, -115.560341]}, "city": "el centro", "id": "061203012184", "state": "ca", "lng": "-115.560341", "name": "ballington academy for the arts and sciences"}, {"street": "1525 main st", "phone": "7603530140", "lat": "32.7928008", "county": "imperial", "zip": "92243", "website": "www.ballingtonacademy.org/", "source": "places", "location": {"__class__": "tuple", "__value__": [32.7928008, -115.5709758]}, "city": "el centro", "id": "chijm0j9w9fm14arolskmevujdy", "state": "ca", "lng": "-115.5709758", "name": "ballington academy for the arts & sciences"}]}, {"__class__": "tuple", "__value__": [{"street": "2151 n kraemer blvd", "phone": "7149867480", "lat": "33.9009164", "county": "orange", "zip": "92870", "website": "www.tuffree.org/", "source": "places", "location": {"__class__": "tuple", "__value__": [33.9009164, -117.8642391]}, "city": "placentia", "id": "chijc8ua7exu3iarhg9dt7iyk_m", "state": "ca", "lng": "-117.8642391", "name": "tuffree middle"}, {"street": "2151 n. kraemer blvd.", "phone": "7149867480", "lat": "33.901019", "county": "orange", "zip": "92870", "website": null, "source": "schools", "location": {"__class__": "tuple", "__value__": [33.901019, -117.865617]}, "city": "placentia", "id": "063066004772", "state": "ca", "lng": "-117.865617", "name": "col. j. k. tuffree middle"}]}, {"__class__": "tuple", "__value__": [{"street": "157 s thompson rd", "phone": "8059293366", "lat": "35.0419829", "county": "san luis obispo", "zip": "93444", "website": "www.capslo.org/", "source": "places", "location": {"__class__": "tuple", "__value__": [35.0419829, -120.4749873]}, "city": "nipomo", "id": "chijlxihjixo7iar40szoi8ark4", "state": "ca", "lng": "-120.4749873", "name": "nipomo head start home base"}, {"street": "130 e tefft st", "phone": "8059293366", "lat": "35.0434709", "county": "san luis obispo", "zip": "93444", "website": null, "source": "places", "location": {"__class__": "tuple", "__value__": [35.0434709, -120.474609]}, "city": "nipomo", "id": "chijw1_nbixo7iarqa3l75mn9lu", "state": "ca", "lng": "-120.474609", "name": "head start eoc"}]}, {"__class__": "tuple", "__value__": [{"street": "11311 w. frascati st.", "phone": "6612681660", "lat": "34.487703", "county": "los angeles", "zip": "91390", "website": null, "source": "schools", "location": {"__class__": "tuple", "__value__": [34.487703, -118.332828]}, "city": "agua dulce", "id": "060000106294", "state": "ca", "lng": "-118.332828", "name": "agua dulce elementary"}, {"street": "11311 frascati st", "phone": "6612681660", "lat": "34.4877661", "county": "los angeles", "zip": "91390", "website": "ealas.org/agu/contact/", "source": "places", "location": {"__class__": "tuple", "__value__": [34.4877661, -118.3324461]}, "city": "agua dulce", "id": "chijswh2kzukwoar9u3yz7wgsfa", "state": "ca", "lng": "-118.3324461", "name": "aea agua dulce partnership academy"}]}, {"__class__": "tuple", "__value__": [{"street": "840 broadway", "phone": "4152917990", "lat": "37.7974664", "county": "san francisco", "zip": "94133", "website": "www.jeanparkerelementary.com/", "source": "places", "location": {"__class__": "tuple", "__value__": [37.7974664, -122.4113092]}, "city": "san francisco", "id": "chijrxz9r_kahyarr7zvk9xrzm0", "state": "ca", "lng": "-122.4113092", "name": "jean parker elementary"}, {"street": "840 brd.way st.", "phone": "4152917990", "lat": "37.797685", "county": "san francisco", "zip": "94133", "website": null, "source": "schools", "location": {"__class__": "tuple", "__value__": [37.797685, -122.411058]}, "city": "san francisco", "id": "063441005630", "state": "ca", "lng": "-122.411058", "name": "parker (jean) elementary"}]}, {"__class__": "tuple", "__value__": [{"street": "305 e.moor ave.", "phone": "6509911243", "lat": "37.685311", "county": "san mateo", "zip": "94015", "website": null, "source": "schools", "location": {"__class__": "tuple", "__value__": [37.685311, -122.476496]}, "city": "daly city", "id": "061887002288", "state": "ca", "lng": "-122.476496", "name": "margaret pauline brown elementary"}, {"street": "305 eastmoor ave", "phone": "6509911243", "lat": "37.685246", "county": "san mateo", "zip": "94015", "website": null, "source": "places", "location": {"__class__": "tuple", "__value__": [37.685246, -122.4760905]}, "city": "daly city", "id": "chij-b8rdhf8j4arw_qm2ql1_8w", "state": "ca", "lng": "-122.4760905", "name": "m.p. brown elementary"}]}, {"__class__": "tuple", "__value__": [{"street": "5154 state university dr", "phone": null, "lat": "34.0639592", "county": "los angeles", "zip": "90032", "website": null, "source": "places", "location": {"__class__": "tuple", "__value__": [34.0639592, -118.1696447]}, "city": "los angeles", "id": "chij-wt9ozjfwoart_exi-2hbs0", "state": "ca", "lng": "-118.1696447", "name": "salazar hall"}, {"street": "5151 state university dr", "phone": null, "lat": "34.0654221", "county": "los angeles", "zip": "90032", "website": null, "source": "places", "location": {"__class__": "tuple", "__value__": [34.0654221, -118.1684427]}, "city": "los angeles", "id": "chij978azzjfwoarzjtzpgsqkzk", "state": "ca", "lng": "-118.1684427", "name": "dean's office - biological sciences csula"}]}, {"__class__": "tuple", "__value__": [{"street": "1035 carol ln", "phone": "9252991370", "lat": "37.8925918", "county": "contra costa", "zip": "94549", "website": "thespringstoneschool.org/", "source": "places", "location": {"__class__": "tuple", "__value__": [37.8925918, -122.1030559]}, "city": "lafayette", "id": "chijjwwozz5ihyarijlbbtapq_4", "state": "ca", "lng": "-122.1030559", "name": "springstone community high"}, {"street": "1035 carol ln", "phone": "9259629660", "lat": "37.892213", "county": "contra costa", "zip": "94549", "website": null, "source": "places", "location": {"__class__": "tuple", "__value__": [37.892213, -122.1030942]}, "city": "lafayette", "id": "chijjwwozz5ihyarsfi5yrkgap0", "state": "ca", "lng": "-122.1030942", "name": "springstone"}]}, {"__class__": "tuple", "__value__": [{"street": "15301 s san jose ave", "phone": "5626300142", "lat": "33.892444", "county": "los angeles", "zip": "90221", "website": "https://dhs-compton-ca.schoolloop.com/", "source": "places", "location": {"__class__": "tuple", "__value__": [33.892444, -118.1817663]}, "city": "compton", "id": "chij8tgpusdmwoarnl_wlsyr8zs", "state": "ca", "lng": "-118.1817663", "name": "manuel dominguez high"}, {"street": "15301 s. san jose ave.", "phone": "5626300142", "lat": "33.89337", "county": "los angeles", "zip": "90221", "website": "www.compton.k12.ca.us", "source": "schools", "location": {"__class__": "tuple", "__value__": [33.89337, -118.1818]}, "city": "compton", "id": "060962000978", "state": "ca", "lng": "-118.1818", "name": "dominguez high"}]}, {"__class__": "tuple", "__value__": [{"street": null, "phone": "5304963406", "lat": "41.82209", "county": "siskiyou", "zip": "96050", "website": "www.cde.ca.gov/re/sd/details.asp?cds=47703750000000&public=y", "source": "places", "location": {"__class__": "tuple", "__value__": [41.82209, -122.969198]}, "city": null, "id": "chij2xmn39_kz1qrnjjbllmgtsi", "state": "ca", "lng": "-122.969198", "name": "klamath union elementary"}, {"street": "30438 walker rd.", "phone": "5304963406", "lat": "41.82305", "county": "siskiyou", "zip": "96050", "website": "www.sisnet.ssku.k12.ca.us/~klamaftp", "source": "schools", "location": {"__class__": "tuple", "__value__": [41.82305, -122.9613]}, "city": "horse creek", "id": "061992002387", "state": "ca", "lng": "-122.9613", "name": "klamath river elementary"}]}, {"__class__": "tuple", "__value__": [{"street": "2360 el camino ave.", "phone": "9169791788", "lat": "38.610733", "county": "sacramento", "zip": "95821", "website": "www.aspirepublicschools.org", "source": "schools", "location": {"__class__": "tuple", "__value__": [38.610733, -121.407671]}, "city": "sacramento", "id": "063462012785", "state": "ca", "lng": "-121.407671", "name": "aspire alexander twilight secondary academy"}, {"street": "2360 el camino ave", "phone": "9169791788", "lat": "38.6098831", "county": "sacramento", "zip": "95821", "website": "aspirepublicschools.org/", "source": "places", "location": {"__class__": "tuple", "__value__": [38.6098831, -121.4073425]}, "city": "sacramento", "id": "chijkyvdj4fzmoarqblsesjmkj0", "state": "ca", "lng": "-121.4073425", "name": "aspire alexander twilight college preparatory academy"}]}, {"__class__": "tuple", "__value__": [{"street": "869 n euclid ave", "phone": "9099828811", "lat": "34.104463", "county": "san bernardino", "zip": "91786", "website": "fpc-upland.com/", "source": "places", "location": {"__class__": "tuple", "__value__": [34.104463, -117.652127]}, "city": "upland", "id": "chijwyhr4e4xw4ar2ksq9njoele", "state": "ca", "lng": "-117.652127", "name": "first presbyterian church of upland"}, {"street": "869 n euclid ave", "phone": "9099828616", "lat": "34.1048064", "county": "san bernardino", "zip": "91786", "website": "www.fpc-upland.com/", "source": "places", "location": {"__class__": "tuple", "__value__": [34.1048064, -117.6517222]}, "city": "upland", "id": "chijwyhr4e4xw4arg6-vlvvd2ey", "state": "ca", "lng": "-117.6517222", "name": "first presbyterian preschool"}]}, {"__class__": "tuple", "__value__": [{"street": null, "phone": "5308851519", "lat": "38.901639", "county": "el dorado", "zip": "95635", "website": null, "source": "places", "location": {"__class__": "tuple", "__value__": [38.901639, -120.901404]}, "city": "greenwood", "id": "chijoyx5ckyam4arjlttuw_ijvm", "state": "ca", "lng": "-120.901404", "name": "greenwood center educational"}, {"street": "4411 ca-193", "phone": "5308851519", "lat": "38.9074537", "county": "el dorado", "zip": "95635", "website": "www.sacramentotop10.com/education/schools/b.html", "source": "places", "location": {"__class__": "tuple", "__value__": [38.9074537, -120.9044898]}, "city": "greenwood", "id": "chijcq-qh7iam4arzkzvhh_hb6c", "state": "ca", "lng": "-120.9044898", "name": "black oak mine unified district: greenwood center educational out reach"}]}, {"__class__": "tuple", "__value__": [{"street": "4110 gamsey ln", "phone": "6616315310", "lat": "35.3641086", "county": "kern", "zip": "93301", "website": "www.cde.ca.gov/re/sd/details.asp?cds=15633216008858&public=y", "source": "places", "location": {"__class__": "tuple", "__value__": [35.3641086, -119.0478676]}, "city": "bakersfield", "id": "chij2dszhf9b6oarf66boukwokm", "state": "ca", "lng": "-119.0478676", "name": "caroline harris elementary"}, {"street": "4110 gamsey ln", "phone": "6616314926", "lat": "35.3635322", "county": "kern", "zip": "93301", "website": null, "source": "places", "location": {"__class__": "tuple", "__value__": [35.3635322, -119.0483535]}, "city": "bakersfield", "id": "chijs7ichf9b6oarmqqjrhqeg-a", "state": "ca", "lng": "-119.0483535", "name": "harris elementary"}]}, {"__class__": "tuple", "__value__": [{"street": "84090 avenue 50", "phone": "7603919200", "lat": "33.6866566", "county": "riverside", "zip": "92236", "website": "imagineschoolsarizona.com/", "source": "places", "location": {"__class__": "tuple", "__value__": [33.6866566, -116.1973095]}, "city": "coachella", "id": "chijs7hjsd8v2oarbfckskvb-am", "state": "ca", "lng": "-116.1973095", "name": "imagines - riverside county"}, {"street": "84-090 ave. 50", "phone": "7603919200", "lat": "33.68627", "county": "riverside", "zip": "92236", "website": "www.imagineschools.com", "source": "schools", "location": {"__class__": "tuple", "__value__": [33.68627, -116.197691]}, "city": "coachella", "id": "069102612985", "state": "ca", "lng": "-116.197691", "name": "imagine schools, riverside county"}]}, {"__class__": "tuple", "__value__": [{"street": "7713 wilkinson ave", "phone": "8182819806", "lat": "34.210703", "county": "los angeles", "zip": "91605", "website": null, "source": "places", "location": {"__class__": "tuple", "__value__": [34.210703, -118.404484]}, "city": "los angeles", "id": "chij492kh5iwwoarw_bmmlqdbya", "state": "ca", "lng": "-118.404484", "name": "kiddie cottage preschool"}, {"street": "7713 wilkinson ave", "phone": "8182819806", "lat": "34.2106987", "county": "los angeles", "zip": "91605", "website": "https://sites.google.com/site/magnoliaplacepreschool/", "source": "places", "location": {"__class__": "tuple", "__value__": [34.2106987, -118.4044666]}, "city": "los angeles", "id": "chijttqhh5iwwoarhpjpb1mgml4", "state": "ca", "lng": "-118.4044666", "name": "magnolia place preschool"}]}, {"__class__": "tuple", "__value__": [{"street": "24302 4th st", "phone": "9093886311", "lat": "34.107087", "county": "san bernardino", "zip": "92410", "website": "sbcusd.k12.ca.us/", "source": "places", "location": {"__class__": "tuple", "__value__": [34.107087, -117.2734861]}, "city": "san bernardino", "id": "chijyrdijfftw4arllcmkslfjhu", "state": "ca", "lng": "-117.2734861", "name": "anderson elementary"}, {"street": "24302 e. fourth st.", "phone": "9093886311", "lat": "34.107017", "county": "san bernardino", "zip": "92410", "website": null, "source": "schools", "location": {"__class__": "tuple", "__value__": [34.107017, -117.273485]}, "city": "san bernardino", "id": "063417007629", "state": "ca", "lng": "-117.273485", "name": "star at anderson community day"}]}, {"__class__": "tuple", "__value__": [{"street": "1010 n main st", "phone": "7145600900", "lat": "33.754031", "county": "orange", "zip": "92701", "website": "www.ocsarts.net/", "source": "places", "location": {"__class__": "tuple", "__value__": [33.754031, -117.867997]}, "city": "santa ana", "id": "chijuymkwkjz3iar66iuni7gwbc", "state": "ca", "lng": "-117.867997", "name": "orange county of the arts"}, {"street": "1010 n. main st.", "phone": "7145600900", "lat": "33.754109", "county": "orange", "zip": "92701", "website": "www.ocsarts.net/", "source": "schools", "location": {"__class__": "tuple", "__value__": [33.754109, -117.867922]}, "city": "santa ana", "id": "063531008546", "state": "ca", "lng": "-117.867922", "name": "ocsa"}]}, {"__class__": "tuple", "__value__": [{"street": "515 n. rancho santiago blvd.", "phone": "7149976366", "lat": "33.795701", "county": "orange", "zip": "92869", "website": "www.orangeusd.k12.ca.us/schools/middle/santiago/index.asp", "source": "schools", "location": {"__class__": "tuple", "__value__": [33.795701, -117.797698]}, "city": "orange", "id": "062865004450", "state": "ca", "lng": "-117.797698", "name": "santiago middle"}, {"street": "515 s rancho santiago blvd", "phone": "7149976366", "lat": "33.7949363", "county": "orange", "zip": "92869", "website": "www.orangeusd.k12.ca.us/santiago", "source": "places", "location": {"__class__": "tuple", "__value__": [33.7949363, -117.7977118]}, "city": "orange", "id": "chijbybajg_a3iarcoxyolo1sxy", "state": "ca", "lng": "-117.7977118", "name": "santiago charter middle"}]}, {"__class__": "tuple", "__value__": [{"street": "2611 potrero ave", "phone": "6263509386", "lat": "34.0596108", "county": "los angeles", "zip": "91733", "website": "potrero.emcsd.org/", "source": "places", "location": {"__class__": "tuple", "__value__": [34.0596108, -118.0564185]}, "city": "south el monte", "id": "chijyu_zay7qwoarmhh4xwpwwgc", "state": "ca", "lng": "-118.0564185", "name": "potrero intermediate"}, {"street": "2611 n. potrero ave.", "phone": "6263509386", "lat": "34.059478", "county": "los angeles", "zip": "91733", "website": null, "source": "schools", "location": {"__class__": "tuple", "__value__": [34.059478, -118.056266]}, "city": "el monte", "id": "061209001356", "state": "ca", "lng": "-118.056266", "name": "potrero elementary"}]}, {"__class__": "tuple", "__value__": [{"street": "4736 huntington dr", "phone": "3233523148", "lat": "34.0851049", "county": "los angeles", "zip": "90032", "website": "www.dignidad.org/", "source": "places", "location": {"__class__": "tuple", "__value__": [34.0851049, -118.1815419]}, "city": "los angeles", "id": "chij62chkurewoar-h0oly6vxxq", "state": "ca", "lng": "-118.1815419", "name": "academia semillas del pueblo"}, {"street": "4970 huntington dr", "phone": "3233528407", "lat": "34.0875738", "county": "los angeles", "zip": "90032", "website": "www.dignidad.org/", "source": "places", "location": {"__class__": "tuple", "__value__": [34.0875738, -118.1743204]}, "city": "los angeles", "id": "chij62chkurewoardfcg9a-8xxo", "state": "ca", "lng": "-118.1743204", "name": "academia semillas del pueblo"}]}, {"__class__": "tuple", "__value__": [{"street": "800 w. elm st.", "phone": "7608721278", "lat": "37.36561", "county": "inyo", "zip": "93514", "website": "www.bishopschools.org", "source": "schools", "location": {"__class__": "tuple", "__value__": [37.36561, -118.406301]}, "city": "bishop", "id": "060140912380", "state": "ca", "lng": "-118.406301", "name": "bishop union elementary community day ii"}, {"street": "800 w elm st", "phone": "7608721278", "lat": "37.365543", "county": "inyo", "zip": "93514", "website": "bes-bishop-ca.schoolloop.com/", "source": "places", "location": {"__class__": "tuple", "__value__": [37.365543, -118.406284]}, "city": "bishop", "id": "chijw2yd6xwwvoartxxqu7hm9so", "state": "ca", "lng": "-118.406284", "name": "bishop union elem district"}]}, {"__class__": "tuple", "__value__": [{"street": "730 w. third st.", "phone": "5625900904", "lat": "33.76989", "county": "los angeles", "zip": "90802", "website": "www.lbusd.k12.ca.us", "source": "schools", "location": {"__class__": "tuple", "__value__": [33.76989, -118.201261]}, "city": "long beach", "id": "062250010828", "state": "ca", "lng": "-118.201261", "name": "chavez elementary"}, {"street": "730 w 3rd st", "phone": "5625900904", "lat": "33.7698972", "county": "los angeles", "zip": "90802", "website": "www.lbusd.k12.ca.us/chavez/", "source": "places", "location": {"__class__": "tuple", "__value__": [33.7698972, -118.2008371]}, "city": "long beach", "id": "chijtdpm9tux3yarf7v8r92iya8", "state": "ca", "lng": "-118.2008371", "name": "cesar chavez elementary"}]}, {"__class__": "tuple", "__value__": [{"street": "1750 s white rd", "phone": "4089372800", "lat": "37.3461624", "county": "santa clara", "zip": "95127", "website": "mtpleasant.esuhsd.org/", "source": "places", "location": {"__class__": "tuple", "__value__": [37.3461624, -121.8082669]}, "city": "san jose", "id": "chij1wfq0qrsj4arrlmvqrpnlga", "state": "ca", "lng": "-121.8082669", "name": "mt. pleasant high"}, {"street": "1750 s. white rd.", "phone": "4089372800", "lat": "37.346212", "county": "santa clara", "zip": "95127", "website": null, "source": "schools", "location": {"__class__": "tuple", "__value__": [37.346212, -121.807867]}, "city": "san jose", "id": "061182001304", "state": "ca", "lng": "-121.807867", "name": "mount pleasant high"}]}, {"__class__": "tuple", "__value__": [{"street": "591 w fremont ave", "phone": null, "lat": "37.3538748", "county": "santa clara", "zip": "94087", "website": "https://ace.fuhsd.org/", "source": "places", "location": {"__class__": "tuple", "__value__": [37.3538748, -122.0377025]}, "city": "sunnyvale", "id": "chijq0ru3h-2j4ar81oedxgu1og", "state": "ca", "lng": "-122.0377025", "name": "adult school"}, {"street": "591 w fremont ave", "phone": "4085222700", "lat": "37.353938", "county": "santa clara", "zip": "94087", "website": "ace.fuhsd.org/", "source": "places", "location": {"__class__": "tuple", "__value__": [37.353938, -122.0375061]}, "city": "sunnyvale", "id": "chijtd6fvtw1j4arnno5w0zswao", "state": "ca", "lng": "-122.0375061", "name": "adult & community education"}]}, {"__class__": "tuple", "__value__": [{"street": "5515 main ave", "phone": "9169862284", "lat": "38.6664695", "county": "sacramento", "zip": "95662", "website": null, "source": "places", "location": {"__class__": "tuple", "__value__": [38.6664695, -121.2031096]}, "city": "orangevale", "id": "chijuvl5283mmoars7zdrejlyoc", "state": "ca", "lng": "-121.2031096", "name": "discovery club"}, {"street": "5515 main ave", "phone": "9169862246", "lat": "38.6664695", "county": "sacramento", "zip": "95662", "website": null, "source": "places", "location": {"__class__": "tuple", "__value__": [38.6664695, -121.2031096]}, "city": "orangevale", "id": "chijuvl5283mmoarrmigou94aic", "state": "ca", "lng": "-121.2031096", "name": "twin lakes ii discovery club"}]}, {"__class__": "tuple", "__value__": [{"street": "3140 hyde park blvd", "phone": "3237784992", "lat": "33.9802119", "county": "los angeles", "zip": "90043", "website": "www.lausd.k12.ca.us/hyde_park_el/welcome.html", "source": "places", "location": {"__class__": "tuple", "__value__": [33.9802119, -118.3280775]}, "city": "los angeles", "id": "chijm2xoyr63woaro7loqte2o8s", "state": "ca", "lng": "-118.3280775", "name": "yes academy"}, {"street": "3140 hyde park blvd", "phone": "3237784992", "lat": "33.9802822", "county": "los angeles", "zip": "90043", "website": null, "source": "places", "location": {"__class__": "tuple", "__value__": [33.9802822, -118.3280439]}, "city": "los angeles", "id": "chijm2xoyr63woar4hgygkhluva", "state": "ca", "lng": "-118.3280439", "name": "hyde park elementary"}]}, {"__class__": "tuple", "__value__": [{"street": "4345 campus ave.", "phone": "6194973500", "lat": "32.75618", "county": "san diego", "zip": "92103", "website": "new.sandi.net/schools/birney", "source": "schools", "location": {"__class__": "tuple", "__value__": [32.75618, -117.1487]}, "city": "san diego", "id": "063432005422", "state": "ca", "lng": "-117.1487", "name": "birney elementary"}, {"street": "4345 campus ave", "phone": "6194973500", "lat": "32.7562089", "county": "san diego", "zip": "92103", "website": "https://www.sandiegounified.org/schools/birney", "source": "places", "location": {"__class__": "tuple", "__value__": [32.7562089, -117.1484513]}, "city": "san diego", "id": "chij1zob3obu2yarqb0gb5ryuok", "state": "ca", "lng": "-117.1484513", "name": "alice birney elementary"}]}, {"__class__": "tuple", "__value__": [{"street": "1770 main st", "phone": "6193445300", "lat": "32.701186", "county": "san diego", "zip": "92113", "website": "www.sandi.net/", "source": "places", "location": {"__class__": "tuple", "__value__": [32.701186, -117.148736]}, "city": "san diego", "id": "chij1xehqwpt2yarb4y-2sierba", "state": "ca", "lng": "-117.148736", "name": "perkins elementary"}, {"street": "1770 main st.", "phone": "6193445300", "lat": "32.7007", "county": "san diego", "zip": "92113", "website": null, "source": "schools", "location": {"__class__": "tuple", "__value__": [32.7007, -117.1488]}, "city": "san diego", "id": "063432005506", "state": "ca", "lng": "-117.1488", "name": "perkins k-8"}]}, {"__class__": "tuple", "__value__": [{"street": "6098 reyes adobe rd", "phone": "8185972153", "lat": "34.1669049", "county": "los angeles", "zip": "91301", "website": "www.buttercuppreschool.org/", "source": "places", "location": {"__class__": "tuple", "__value__": [34.1669049, -118.7889935]}, "city": "agoura hills", "id": "chijy11p5jck6iariid1nttvt4y", "state": "ca", "lng": "-118.7889935", "name": "buttercup preschool"}, {"street": "6098 reyes adobe rd.", "phone": "8185972153", "lat": "34.157374", "county": "los angeles", "zip": "91301", "website": "www.lvusd.org", "source": "schools", "location": {"__class__": "tuple", "__value__": [34.157374, -118.78586]}, "city": "agoura hills", "id": "062100012838", "state": "ca", "lng": "-118.78586", "name": "buttercup pre-school"}]}, {"__class__": "tuple", "__value__": [{"street": "325 e 111th st", "phone": "3234202113", "lat": "33.9353955", "county": "los angeles", "zip": "90061", "website": "www.cde.ca.gov/re/sd/details.asp?cds=19647330118570&public=y", "source": "places", "location": {"__class__": "tuple", "__value__": [33.9353955, -118.2684659]}, "city": "los angeles", "id": "chijz1ekmibkwoarqhvx0o31yg4", "state": "ca", "lng": "-118.2684659", "name": "animo locke charter high #3"}, {"street": "325 e 111th st", "phone": "3234202067", "lat": "33.935922", "county": "los angeles", "zip": "90061", "website": "www.greendot.org/", "source": "places", "location": {"__class__": "tuple", "__value__": [33.935922, -118.2669692]}, "city": "los angeles", "id": "chijz1ekmibkwoar_wxls2gunfy", "state": "ca", "lng": "-118.2669692", "name": "animo locke ace academy"}]}, {"__class__": "tuple", "__value__": [{"street": "599 30th ave", "phone": "4157508400", "lat": "37.7796287", "county": "san francisco", "zip": "94121", "website": "www.gwhs-sfusd-ca.schoolloop.com/", "source": "places", "location": {"__class__": "tuple", "__value__": [37.7796287, -122.4902624]}, "city": "san francisco", "id": "chij9xuzaqihhyarblgihikbog0", "state": "ca", "lng": "-122.4902624", "name": "george washington high"}, {"street": "600 32nd ave.", "phone": "4157508400", "lat": "37.77771", "county": "san francisco", "zip": "94121", "website": null, "source": "schools", "location": {"__class__": "tuple", "__value__": [37.77771, -122.491062]}, "city": "san francisco", "id": "063441005617", "state": "ca", "lng": "-122.491062", "name": "washington (george) high"}]}, {"__class__": "tuple", "__value__": [{"street": "11800 texas ave.", "phone": "3109143500", "lat": "34.045862", "county": "los angeles", "zip": "90025", "website": "www.universitywildcats.org", "source": "schools", "location": {"__class__": "tuple", "__value__": [34.045862, -118.460862]}, "city": "los angeles", "id": "062271003413", "state": "ca", "lng": "-118.460862", "name": "university senior high"}, {"street": "11800 texas ave", "phone": "3109143500", "lat": "34.0439903", "county": "los angeles", "zip": "90025", "website": "www.universitywildcats.org/", "source": "places", "location": {"__class__": "tuple", "__value__": [34.0439903, -118.4583743]}, "city": "los angeles", "id": "chijnuefkwa7woaryy0vk39w8ze", "state": "ca", "lng": "-118.4583743", "name": "university high"}]}, {"__class__": "tuple", "__value__": [{"street": "530 18th st.", "phone": "5108738800", "lat": "37.80778", "county": "alameda", "zip": "94612", "website": "www.oakarts.org", "source": "schools", "location": {"__class__": "tuple", "__value__": [37.80778, -122.270814]}, "city": "oakland", "id": "062805010461", "state": "ca", "lng": "-122.270814", "name": "oakland school for the arts"}, {"street": "530 18th st", "phone": "5108738800", "lat": "37.807892", "county": "alameda", "zip": "94612", "website": "www.oakarts.org/", "source": "places", "location": {"__class__": "tuple", "__value__": [37.807892, -122.270798]}, "city": "oakland", "id": "chijm5ixh66aj4arjxamfbbzp8u", "state": "ca", "lng": "-122.270798", "name": "oakland for the arts"}]}, {"__class__": "tuple", "__value__": [{"street": "6000 n. woodruff ave.", "phone": "5629259981", "lat": "33.864274", "county": "los angeles", "zip": "90713", "website": null, "source": "schools", "location": {"__class__": "tuple", "__value__": [33.864274, -118.116177]}, "city": "lakewood", "id": "060444000402", "state": "ca", "lng": "-118.116177", "name": "mayfair high"}, {"street": "6000 woodruff ave", "phone": "5629259981", "lat": "33.8641739", "county": "los angeles", "zip": "90713", "website": "www.busd.k12.ca.us", "source": "places", "location": {"__class__": "tuple", "__value__": [33.8641739, -118.1166843]}, "city": "lakewood", "id": "chijv6umk50y3yar5m-jlrj5rf8", "state": "ca", "lng": "-118.1166843", "name": "mayfair middle/high"}]}, {"__class__": "tuple", "__value__": [{"street": "25100 red maple ln.", "phone": "9514432450", "lat": "33.884718", "county": "riverside", "zip": "92551", "website": "www.valverde.edu", "source": "schools", "location": {"__class__": "tuple", "__value__": [33.884718, -117.22369]}, "city": "moreno valley", "id": "069113511723", "state": "ca", "lng": "-117.22369", "name": "val verde student success academy"}, {"street": "25100 red maple ln", "phone": "9514432450", "lat": "33.8853827", "county": "riverside", "zip": "92551", "website": "academy.valverde.edu/", "source": "places", "location": {"__class__": "tuple", "__value__": [33.8853827, -117.2238845]}, "city": "moreno valley", "id": "chijz4pahucm3iarw7popczxelg", "state": "ca", "lng": "-117.2238845", "name": "val verde academy"}]}, {"__class__": "tuple", "__value__": [{"street": "400 preece way", "phone": "5308426151", "lat": "41.741123", "county": "siskiyou", "zip": "96097", "website": "https://yhs-yuhsd-ca.schoolloop.com/cms/page_view?d=x&piid=&vpid=1410260407404", "source": "places", "location": {"__class__": "tuple", "__value__": [41.741123, -122.6376503]}, "city": "yreka", "id": "chijz9eqs-pfzlqr3wrfgdvttdm", "state": "ca", "lng": "-122.6376503", "name": "yreka high"}, {"street": "400 preece way", "phone": "5308426151", "lat": "41.741365", "county": "siskiyou", "zip": "96097", "website": "www.yuhsd.net/", "source": "places", "location": {"__class__": "tuple", "__value__": [41.741365, -122.637597]}, "city": "yreka", "id": "chijcscmlelfzlqryqysp0geshy", "state": "ca", "lng": "-122.637597", "name": "yreka union high district"}]}, {"__class__": "tuple", "__value__": [{"street": "2568 w terra vista dr", "phone": "9094217625", "lat": "34.1661961", "county": "san bernardino", "zip": "92377", "website": "www.cde.ca.gov/re/sd/details.asp?cds=36678506111728&public=y", "source": "places", "location": {"__class__": "tuple", "__value__": [34.1661961, -117.4229673]}, "city": "rialto", "id": "chijr74ssoxow4arno1rw_dyiz4", "state": "ca", "lng": "-117.4229673", "name": "fitzgerald elementary"}, {"street": "2568 w. terra vista dr.", "phone": "9094217625", "lat": "34.165765", "county": "san bernardino", "zip": "92377", "website": "http://fitzgerald-rialto-ca.schoolloop.com/", "source": "schools", "location": {"__class__": "tuple", "__value__": [34.165765, -117.423146]}, "city": "rialto", "id": "063237003847", "state": "ca", "lng": "-117.423146", "name": "edward fitzgerald elementary"}]}, {"__class__": "tuple", "__value__": [{"street": "13050 borden ave", "phone": "8188335114", "lat": "34.307275", "county": "los angeles", "zip": "91342", "website": "www.sylmarhs.org/", "source": "places", "location": {"__class__": "tuple", "__value__": [34.307275, -118.4413632]}, "city": "los angeles", "id": "chijuxnfvtspwoarsoklefva1fa", "state": "ca", "lng": "-118.4413632", "name": "sylmar biotech health academy"}, {"street": "13050 borden ave", "phone": "8188333700", "lat": "34.30781", "county": "los angeles", "zip": "91342", "website": "www.sylmarhs.org/", "source": "places", "location": {"__class__": "tuple", "__value__": [34.30781, -118.4419115]}, "city": "los angeles", "id": "chijie6p0nspwoar68cdsq9gloy", "state": "ca", "lng": "-118.4419115", "name": "sylmar charter high"}]}, {"__class__": "tuple", "__value__": [{"street": "4585 college ave", "phone": "6192860312", "lat": "32.7607416", "county": "san diego", "zip": "92115", "website": "dhcharter.org/", "source": "places", "location": {"__class__": "tuple", "__value__": [32.7607416, -117.0665599]}, "city": "san diego", "id": "chijarepajdw2yaryvoctykfvtk", "state": "ca", "lng": "-117.0665599", "name": "diego hills learning academy"}, {"street": "4585 college ave.", "phone": "6192860312", "lat": "32.76064", "county": "san diego", "zip": "92115", "website": "www.dhcharter.org", "source": "schools", "location": {"__class__": "tuple", "__value__": [32.76064, -117.066631]}, "city": "san diego", "id": "061071012509", "state": "ca", "lng": "-117.066631", "name": "diego hills charter"}]}, {"__class__": "tuple", "__value__": [{"street": "805 humboldt ave.", "phone": "5596651331", "lat": "37.114871", "county": "madera", "zip": "93610", "website": null, "source": "schools", "location": {"__class__": "tuple", "__value__": [37.114871, -120.262684]}, "city": "chowchilla", "id": "060855000852", "state": "ca", "lng": "-120.262684", "name": "chowchilla union high"}, {"street": "805 humboldt ave", "phone": "5596651331", "lat": "37.116291", "county": "madera", "zip": "93610", "website": "www.chowchillahigh.k12.ca.us/", "source": "places", "location": {"__class__": "tuple", "__value__": [37.116291, -120.2627237]}, "city": "chowchilla", "id": "chijcswg1sl8k4arbiy-yvyc10w", "state": "ca", "lng": "-120.2627237", "name": "chowchilla high"}]}, {"__class__": "tuple", "__value__": [{"street": "1821 w meadow ave", "phone": "5597358055", "lat": "36.321487", "county": "tulare", "zip": "93277", "website": "www.vusd.org/visaliacharter.cfm", "source": "places", "location": {"__class__": "tuple", "__value__": [36.321487, -119.312972]}, "city": "visalia", "id": "chijtydgd2avlyariaefpeyynwa", "state": "ca", "lng": "-119.312972", "name": "visalia charter independent study"}, {"street": "1821 w. meadow ln.", "phone": "5597358055", "lat": "36.32144", "county": "tulare", "zip": "93291", "website": "www.vusd.org", "source": "schools", "location": {"__class__": "tuple", "__value__": [36.32144, -119.313021]}, "city": "visalia", "id": "064116011823", "state": "ca", "lng": "-119.313021", "name": "visalia charter independent study"}]}, {"__class__": "tuple", "__value__": [{"street": "824 29th ave", "phone": "5105353844", "lat": "37.775775", "county": "alameda", "zip": "94601", "website": "publicportal.ousd.k12.ca.us/199410811183734550/flexbase/flexbasedisplay.asp?directoryid=2&displaytype=c&field0=lazear+elementary+school&submit=submit", "source": "places", "location": {"__class__": "tuple", "__value__": [37.775775, -122.231668]}, "city": "oakland", "id": "chijwzcni-2gj4arljma6uqi9vm", "state": "ca", "lng": "-122.231668", "name": "lazear elementary"}, {"street": "1025 2nd ave", "phone": "5105353844", "lat": "37.7963838", "county": "alameda", "zip": "94606", "website": "www.ousd.k12.ca.us/", "source": "places", "location": {"__class__": "tuple", "__value__": [37.7963838, -122.2588204]}, "city": "oakland", "id": "chijyr5uqjghj4arl9g2ilqs1wc", "state": "ca", "lng": "-122.2588204", "name": "lazear elementary"}]}, {"__class__": "tuple", "__value__": [{"street": "1305 laurel rd", "phone": "8059338951", "lat": "34.3747737", "county": "ventura", "zip": "93060", "website": "www.cde.ca.gov/re/sd/details.asp?cds=56768286055610&public=y", "source": "places", "location": {"__class__": "tuple", "__value__": [34.3747737, -119.0625607]}, "city": "santa paula", "id": "chij71gxw-e16yarekwzrcf2oba", "state": "ca", "lng": "-119.0625607", "name": "thelma b. bedell elementary"}, {"street": "1305 laurel rd", "phone": "8059338951", "lat": "34.3747245", "county": "ventura", "zip": "93060", "website": null, "source": "places", "location": {"__class__": "tuple", "__value__": [34.3747245, -119.0627458]}, "city": "santa paula", "id": "chijzql-g-y16yaredpvnbrxkf0", "state": "ca", "lng": "-119.0627458", "name": "thelma bedell elementary sch"}]}, {"__class__": "tuple", "__value__": [{"street": "1500 benicia rd", "phone": "7076440403", "lat": "38.0868916", "county": "solano", "zip": "94591", "website": "spsv.org/", "source": "places", "location": {"__class__": "tuple", "__value__": [38.0868916, -122.2025626]}, "city": "vallejo", "id": "chijn8vjuudyhyar4q-sf3f2sha", "state": "ca", "lng": "-122.2025626", "name": "st patrick-st vincent athletic"}, {"street": "1500 benicia rd", "phone": "7076444425", "lat": "38.0866127", "county": "solano", "zip": "94591", "website": "spsv.org/", "source": "places", "location": {"__class__": "tuple", "__value__": [38.0866127, -122.2018305]}, "city": "vallejo", "id": "chijn8vjuudyhyarpybh3uiezj4", "state": "ca", "lng": "-122.2018305", "name": "patricks saint vincent high"}]}, {"__class__": "tuple", "__value__": [{"street": "3961 ave 400", "phone": "5598977209", "lat": "36.5172877", "county": "tulare", "zip": "93631", "website": "www.kingsriverelementary.org/", "source": "places", "location": {"__class__": "tuple", "__value__": [36.5172877, -119.4856545]}, "city": "kingsburg", "id": "chijxt0mn2fhliar4fpqkahpj6y", "state": "ca", "lng": "-119.4856545", "name": "kings river union elementary"}, {"street": "3961 ave. 400", "phone": "5598977209", "lat": "36.516702", "county": "tulare", "zip": "93631", "website": "www.kingsriverelementary.org", "source": "schools", "location": {"__class__": "tuple", "__value__": [36.516702, -119.485599]}, "city": "kingsburg", "id": "061974002378", "state": "ca", "lng": "-119.485599", "name": "kings river elementary"}]}, {"__class__": "tuple", "__value__": [{"street": "3531 22nd st", "phone": "4159703330", "lat": "37.7545904", "county": "san francisco", "zip": "94114", "website": "gkarolina428gmail.com/", "source": "places", "location": {"__class__": "tuple", "__value__": [37.7545904, -122.4263672]}, "city": "san francisco", "id": "chiju9ibzxv-j4arff6hvb2ldce", "state": "ca", "lng": "-122.4263672", "name": "thomas edison charter academy"}, {"street": "3531 22nd st.", "phone": "4159703330", "lat": "37.75483", "county": "san francisco", "zip": "94114", "website": "www.edisoncharteracademy.com", "source": "schools", "location": {"__class__": "tuple", "__value__": [37.75483, -122.426071]}, "city": "san francisco", "id": "063441010388", "state": "ca", "lng": "-122.426071", "name": "edison charter academy"}]}, {"__class__": "tuple", "__value__": [{"street": "1602 monterey st.", "phone": "2095764821", "lat": "37.626447", "county": "stanislaus", "zip": "95354", "website": null, "source": "schools", "location": {"__class__": "tuple", "__value__": [37.626447, -120.969896]}, "city": "modesto", "id": "062513003757", "state": "ca", "lng": "-120.969896", "name": "orville wright elementary"}, {"street": "1602 monterey ave", "phone": "2095748462", "lat": "37.6266647", "county": "stanislaus", "zip": "95354", "website": "https://wright.mcs4kids.com/", "source": "places", "location": {"__class__": "tuple", "__value__": [37.6266647, -120.9700649]}, "city": "modesto", "id": "chijiz5c54tukiarm8galkcqscm", "state": "ca", "lng": "-120.9700649", "name": "orville wright elementary"}]}, {"__class__": "tuple", "__value__": [{"street": "7025 e. parkcrest st.", "phone": "5624253539", "lat": "33.829497", "county": "los angeles", "zip": "90808", "website": null, "source": "schools", "location": {"__class__": "tuple", "__value__": [33.829497, -118.096709]}, "city": "long beach", "id": "062250013105", "state": "ca", "lng": "-118.096709", "name": "ernest s. mcbride, sr. high"}, {"street": "7025 parkcrest st", "phone": "5624253539", "lat": "33.8303302", "county": "los angeles", "zip": "90808", "website": "mcbride-lbusd-ca.schoolloop.com/", "source": "places", "location": {"__class__": "tuple", "__value__": [33.8303302, -118.0958994]}, "city": "long beach", "id": "chijidla4-4t3yarvmlwex4-z-k", "state": "ca", "lng": "-118.0958994", "name": "ernest s. mcbride high"}]}, {"__class__": "tuple", "__value__": [{"street": "1821 robertson rd.", "phone": "2095764646", "lat": "37.614404", "county": "stanislaus", "zip": "95351", "website": null, "source": "schools", "location": {"__class__": "tuple", "__value__": [37.614404, -121.019565]}, "city": "modesto", "id": "062513003747", "state": "ca", "lng": "-121.019565", "name": "robertson road elementary"}, {"street": "1821 robertson rd", "phone": "2095748402", "lat": "37.6136526", "county": "stanislaus", "zip": "95351", "website": "robertson.mcs4kids.com/", "source": "places", "location": {"__class__": "tuple", "__value__": [37.6136526, -121.0193558]}, "city": "modesto", "id": "chijbz4naaltkiarrr-njpb6l5k", "state": "ca", "lng": "-121.0193558", "name": "robertson road elementary"}]}, {"__class__": "tuple", "__value__": [{"street": "1735 lake tahoe blvd.", "phone": "5305432264", "lat": "38.905566", "county": "el dorado", "zip": "96150", "website": null, "source": "schools", "location": {"__class__": "tuple", "__value__": [38.905566, -120.012836]}, "city": "south lake tahoe", "id": "062064002479", "state": "ca", "lng": "-120.012836", "name": "mt. tallac high"}, {"street": "1735 lake tahoe blvd", "phone": "5305432264", "lat": "38.909964", "county": "el dorado", "zip": "96150", "website": "www.ltusd.org/schools/links_to_our_schools/mt__tallac_continuation_high_school", "source": "places", "location": {"__class__": "tuple", "__value__": [38.909964, -120.0153013]}, "city": "south lake tahoe", "id": "chijg5ov7q6pmyarrpnkf3zbsz8", "state": "ca", "lng": "-120.0153013", "name": "mt tallac high"}]}, {"__class__": "tuple", "__value__": [{"street": "1240 33rd st.", "phone": "6192365600", "lat": "32.718421", "county": "san diego", "zip": "92102", "website": "www.sandi.net/goldenhill", "source": "schools", "location": {"__class__": "tuple", "__value__": [32.718421, -117.123447]}, "city": "san diego", "id": "063432011157", "state": "ca", "lng": "-117.123447", "name": "golden hill k-8"}, {"street": "1240 33rd st", "phone": "6192365600", "lat": "32.718072", "county": "san diego", "zip": "92102", "website": "https://www.sandiegounified.org/schools/golden-hill", "source": "places", "location": {"__class__": "tuple", "__value__": [32.718072, -117.1237177]}, "city": "san diego", "id": "chij6xqqk4jt2yarxh54y2nt7b4", "state": "ca", "lng": "-117.1237177", "name": "golden hill elementary"}]}, {"__class__": "tuple", "__value__": [{"street": "545 garretson ave", "phone": "5107994431", "lat": "38.0309588", "county": "contra costa", "zip": "94572", "website": "rhes.jsusd.org/", "source": "places", "location": {"__class__": "tuple", "__value__": [38.0309588, -122.2694712]}, "city": "rodeo", "id": "chijgy6qprr2hyarhypi-skdvwi", "state": "ca", "lng": "-122.2694712", "name": "rodeo hills elementary"}, {"street": "545 garretson ave", "phone": "5107997276", "lat": "38.0309588", "county": "contra costa", "zip": "94572", "website": null, "source": "places", "location": {"__class__": "tuple", "__value__": [38.0309588, -122.2694712]}, "city": "rodeo", "id": "chijjeobfbr2hyar-h32jnp0cec", "state": "ca", "lng": "-122.2694712", "name": "rodeo hills"}]}, {"__class__": "tuple", "__value__": [{"street": "31300 rancho community way", "phone": "9513031304", "lat": "33.47851", "county": "riverside", "zip": "92592", "website": "ranchochristian.org/", "source": "places", "location": {"__class__": "tuple", "__value__": [33.47851, -117.1141477]}, "city": "temecula", "id": "chijkwprlgn_24ar5khf5o5hzby", "state": "ca", "lng": "-117.1141477", "name": "rancho christian preschool"}, {"street": "31300 rancho community way", "phone": "9513031408", "lat": "33.4784982", "county": "riverside", "zip": "92592", "website": "www.ranchochristian.org/", "source": "places", "location": {"__class__": "tuple", "__value__": [33.4784982, -117.1145958]}, "city": "temecula", "id": "chijttk4jmn_24aruqcy-f_eely", "state": "ca", "lng": "-117.1145958", "name": "rancho community christian"}]}, {"__class__": "tuple", "__value__": [{"street": "10401 main st.", "phone": "7077431142", "lat": "39.321306", "county": "mendocino", "zip": "95469", "website": null, "source": "schools", "location": {"__class__": "tuple", "__value__": [39.321306, -123.105058]}, "city": "potter valley", "id": "063140004868", "state": "ca", "lng": "-123.105058", "name": "potter valley high"}, {"street": null, "phone": "7077431142", "lat": "39.3217997", "county": "mendocino", "zip": "95469", "website": "www.pottervalleyschools.us/", "source": "places", "location": {"__class__": "tuple", "__value__": [39.3217997, -123.105174]}, "city": "potter valley", "id": "chijw0kypet-gyarvffs8an4t-e", "state": "ca", "lng": "-123.105174", "name": "potter valley jr sr high"}]}, {"__class__": "tuple", "__value__": [{"street": "2121 s bon view ave", "phone": "9099473932", "lat": "34.0348075", "county": "san bernardino", "zip": "91761", "website": "https://bonview.omsd.net/", "source": "places", "location": {"__class__": "tuple", "__value__": [34.0348075, -117.6365168]}, "city": "ontario", "id": "chijyydikzk0w4arizopza61s9s", "state": "ca", "lng": "-117.6365168", "name": "bon view elementary"}, {"street": "2121 s. bon view ave.", "phone": "9099473932", "lat": "34.045725", "county": "san bernardino", "zip": "91761", "website": null, "source": "schools", "location": {"__class__": "tuple", "__value__": [34.045725, -117.636203]}, "city": "ontario", "id": "062847004389", "state": "ca", "lng": "-117.636203", "name": "bon view elementary"}]}, {"__class__": "tuple", "__value__": [{"street": "330 n. walker dr.", "phone": "8316786440", "lat": "36.428269", "county": "monterey", "zip": "93960", "website": "www.soledadusd.org", "source": "schools", "location": {"__class__": "tuple", "__value__": [36.428269, -121.320104]}, "city": "soledad", "id": "063705008988", "state": "ca", "lng": "-121.320104", "name": "gabilan elementary"}, {"street": "330 walker dr", "phone": "8316783934", "lat": "36.427852", "county": "monterey", "zip": "93960", "website": "soledadusd.org/gabilan-elementary/", "source": "places", "location": {"__class__": "tuple", "__value__": [36.427852, -121.320219]}, "city": "soledad", "id": "chij240ilu5okoarr6wxvafpkg4", "state": "ca", "lng": "-121.320219", "name": "gabilan elementary"}]}, {"__class__": "tuple", "__value__": [{"street": "13421 fairford ave", "phone": "5628642508", "lat": "33.9095214", "county": "los angeles", "zip": "90650", "website": "www.ddjohnstonelementary.org/", "source": "places", "location": {"__class__": "tuple", "__value__": [33.9095214, -118.0950108]}, "city": "norwalk", "id": "chijnxutuldswoar_ugk0h34h6a", "state": "ca", "lng": "-118.0950108", "name": "d.d johnston elementary"}, {"street": "13421 s. fairford ave.", "phone": "5628642508", "lat": "33.90925", "county": "los angeles", "zip": "90650", "website": null, "source": "schools", "location": {"__class__": "tuple", "__value__": [33.90925, -118.095505]}, "city": "norwalk", "id": "062769004171", "state": "ca", "lng": "-118.095505", "name": "d. d. johnston elementary"}]}, {"__class__": "tuple", "__value__": [{"street": "22725 elem ln.", "phone": "6615886313", "lat": "35.421881", "county": "kern", "zip": "93314", "website": "www.rbgusd.k12.ca.us", "source": "schools", "location": {"__class__": "tuple", "__value__": [35.421881, -119.253932]}, "city": "bakersfield", "id": "063271008496", "state": "ca", "lng": "-119.253932", "name": "rio bravo elementary"}, {"street": "22725 elementary ln", "phone": "6615886313", "lat": "35.4219698", "county": "kern", "zip": "93314", "website": "rbgusd.k12.ca.us/", "source": "places", "location": {"__class__": "tuple", "__value__": [35.4219698, -119.2542679]}, "city": "bakersfield", "id": "chij886s72dq6oarrp8h8toog0s", "state": "ca", "lng": "-119.2542679", "name": "rio-ravo elementary"}]}]}